     3.02           OBSERVATION DATA    M: Mixed            RINEX VERSION / TYPE
RTKCONV 2.4.3 b33                       20200102 024841 UTC PGM / RUN BY / DATE 
log: I:\FTPDIR\TEST_DATA\data_dynamic_SA_20200101\forward\  COMMENT             
format: RINEX                                               COMMENT             
                                                            MARKER NAME         
                                                            MARKER NUMBER       
                                                            MARKER TYPE         
                                                            OBSERVER / AGENCY   
                                                            REC # / TYPE / VERS 
                                                            ANT # / TYPE        
        0.0000        0.0000        0.0000                  APPROX POSITION XYZ 
        0.0000        0.0000        0.0000                  ANTENNA: DELTA H/E/N
G    8 C1C L1C D1C S1C C2L L2L D2L S2L                      SYS / # / OBS TYPES 
R    8 C1C L1C D1C S1C C2C L2C D2C S2C                      SYS / # / OBS TYPES 
  2020     1     1    22    15   41.9880000     GPS         TIME OF FIRST OBS   
  2020     1     1    22    53   59.9890000     GPS         TIME OF LAST OBS    
G                                                           SYS / PHASE SHIFT   
R                                                           SYS / PHASE SHIFT   
  0                                                         GLONASS SLOT / FRQ #
 C1C    0.000 C1P    0.000 C2C    0.000 C2P    0.000        GLONASS COD/PHS/BIS 
                                                            END OF HEADER       
> 2020  1  1 22 15 41.9880000  0  8                     
G27  19652189.573   103272955.662        1784.985          42.000    19652186.555    80472422.883        1390.989          42.000  
G 7  18422664.141    96811751.987        1420.470          50.000    18422658.762    75437708.971        1106.804          46.000  
G 9  16505255.477    86735701.753        -881.880          51.000    16505251.408    67586246.670        -687.284          49.000  
R 9  16025627.685    85575956.957       -2922.616          53.000    16025626.530    66559075.908       -2273.192          51.000  
R11  19430143.430   103828798.631        2887.024          48.000    19430143.960    80755751.343        2245.334          42.000  
R 8  15640856.661    83756076.876        -974.920          51.000    15640854.724    65143607.647        -758.251          50.000  
G30  20989172.724   110298843.483        2357.069          34.000    20989177.240    85947103.0391       1836.358          33.000  
R 1  17509846.912    93600167.900        2293.599          48.000    17509848.604    72800137.292        1784.026          43.000  
> 2020  1  1 22 15 42.9880000  0  8                     
G27  19651849.917   103271171.120        1784.570          42.000    19651847.012    80471032.319        1390.760          42.000  
G 7  18422393.836    96810331.887        1420.171          50.000    18422388.437    75436602.401        1106.554          46.000  
G 9  16505423.332    86736584.370        -882.823          51.000    16505419.357    67586934.420        -687.972          49.000  
R 9  16026175.074    85578880.075       -2923.186          53.000    16026173.971    66561349.445       -2273.636          51.000  
R11  19429603.115   103825912.002        2886.601          48.000    19429603.769    80753506.188        2245.321          42.000  
R 8  15641038.700    83757052.446        -975.824          51.000    15641036.838    65144366.422        -759.013          50.000  
G30  20988724.175   110296486.489        2357.075          34.000    20988729.236    85945266.436        1836.391          33.000  
R 1  17509417.886    93597874.720        2293.071          48.000    17509419.606    72798353.714        1783.460          43.000  
> 2020  1  1 22 15 43.9880000  0  8                     
G27  19651510.372   103269386.904        1783.945          42.000    19651507.552    80469642.030        1390.266          42.000  
G 7  18422123.650    96808911.946        1419.765          50.000    18422118.171    75435495.947        1106.376          46.000  
G 9  16505591.416    86737467.458        -883.406          51.000    16505587.489    67587622.543        -688.443          49.000  
R 9  16026722.543    85581803.602       -2923.821          53.000    16026721.407    66563623.297       -2274.027          51.000  
R11  19429063.016   103823025.472        2886.273          48.000    19429063.569    80751261.116        2244.861          42.000  
R 8  15641220.918    83758028.799        -976.873          51.000    15641219.227    65145125.805        -759.761          50.000  
G30  20988275.733   110294129.536        2356.642          34.000    20988281.040    85943429.854        1835.755          33.000  
R 1  17508988.981    93595581.998        2292.379          48.000    17508990.759    72796570.483        1782.941          43.000  
> 2020  1  1 22 15 44.9880000  0  8                     
G27  19651171.018   103267603.313        1783.422          42.000    19651168.109    80468252.219        1389.927          42.000  
G 7  18421853.559    96807492.442        1419.488          50.000    18421848.037    75434389.851        1106.008          46.000  
G 9  16505759.658    86738351.343        -884.200          52.000    16505755.703    67588311.278        -688.992          49.000  
R 9  16027270.154    85584727.829       -2924.477          53.000    16027269.085    66565897.700       -2274.587          51.000  
R11  19428522.914   103820139.376        2886.144          48.000    19428523.464    80749016.370        2244.707          42.000  
R 8  15641403.424    83759006.223        -977.870          51.000    15641401.723    65145886.024        -760.479          50.000  
G30  20987827.381   110291772.834        2356.698          35.000    20987832.633    85941593.439        1836.364          33.000  
R 1  17508560.222    93593290.050        2291.482          48.000    17508561.978    72794787.836        1782.626          43.000  
> 2020  1  1 22 15 45.9880000  0  8                     
G27  19650831.746   103265820.361        1782.640          42.000    19650828.664    80466862.915        1388.998          42.000  
G 7  18421583.532    96806073.395        1418.852          50.000    18421577.942    75433284.093        1105.594          46.000  
G 9  16505928.025    86739236.002        -885.056          51.000    16505924.091    67589000.622        -689.708          49.000  
R 9  16027817.816    85587652.806       -2925.240          52.000    16027816.882    66568172.684       -2275.243          52.000  
R11  19427982.923   103817253.744        2885.472          48.000    19427983.322    80746772.004        2244.180          42.000  
R 8  15641586.280    83759984.718        -978.945          51.000    15641584.551    65146647.076        -761.386          50.000  
G30  20987378.981   110289416.437        2356.362          34.000    20987384.337    85939757.263        1836.101          33.000  
R 1  17508131.646    93590998.830        2290.764          48.000    17508133.448    72793005.797        1781.697          43.000  
> 2020  1  1 22 15 46.9880000  0  8                     
G27  19650492.570   103264037.753        1782.549          42.000    19650489.589    80465473.871        1389.026          42.000  
G 7  18421313.483    96804654.515        1418.978          50.000    18421308.076    75432178.479        1105.560          46.000  
G 9  16506096.436    86740121.178        -885.292          51.000    16506092.467    67589690.376        -689.919          49.000  
R 9  16028365.659    85590578.243       -2925.534          53.000    16028364.738    66570448.018       -2275.398          52.000  
R11  19427442.952   103814368.260        2885.538          48.000    19427443.240    80744527.748        2244.042          41.000  
R 8  15641769.174    83760964.029        -979.594          51.000    15641767.399    65147408.765        -761.878          50.000  
G30  20986930.620   110287060.059        2356.985          34.000    20986935.825    85937921.133        1836.622          33.000  
R 1  17507703.150    93588708.104        2290.547          48.000    17507705.001    72791224.110        1781.721          43.000  
> 2020  1  1 22 15 47.9880000  0  8                     
G27  19650153.291   103262255.450        1781.799          42.000    19650150.419    80464085.059        1388.567          42.000  
G 7  18421043.445    96803235.742        1418.544          50.000    18421038.084    75431072.940        1105.405          45.000  
G 9  16506264.947    86741006.802        -886.114          52.000    16506261.043    67590380.469        -690.490          49.000  
R 9  16028913.607    85593504.052       -2926.079          52.000    16028912.610    66572723.641       -2275.783          52.000  
R11  19426903.069   103811482.837        2885.250          48.000    19426903.228    80742283.531        2244.179          41.000  
R 8  15641952.234    83761944.109        -980.673          52.000    15641950.341    65148171.044        -762.660          50.000  
G30  20986482.292   110284703.624        2356.304          34.000    20986487.290    85936084.935        1836.661          33.000  
R 1  17507274.703    93586417.769        2290.023          48.000    17507276.433    72789442.748        1781.143          43.000  
> 2020  1  1 22 15 48.9880000  0  8                     
G27  19649814.310   103260473.599        1781.022          41.000    19649811.281    80462696.601        1388.085          41.000  
G 7  18420773.596    96801817.248        1417.703          49.000    18420768.133    75429967.633        1104.561          45.000  
G 9  16506433.599    86741893.025        -887.089          51.000    16506429.697    67591071.029        -691.117          49.000  
R 9  16029461.670    85596430.409       -2927.201          51.000    16029460.658    66574999.700       -2276.749          51.000  
R11  19426363.165   103808597.662        2884.493          47.000    19426363.357    80740039.521        2243.424          41.000  
R 8  15642135.501    83762925.131        -982.109          50.000    15642133.503    65148934.066        -763.866          49.000  
G30  20986034.020   110282347.330        2355.360          34.000    20986038.863    85934248.915        1834.911          33.000  
R 1  17506846.376    93584128.028        2288.720          46.000    17506848.144    72787661.838        1780.193          43.000  
> 2020  1  1 22 15 49.9880000  0  8                     
G27  19649475.334   103258692.383        1780.620          41.000    19649472.274    80461308.653        1387.529          41.000  
G 7  18420503.785    96800399.212        1417.518          49.000    18420498.152    75428862.657        1104.441          45.000  
G 9  16506602.454    86742780.053        -887.695          51.000    16506598.494    67591762.218        -691.583          49.000  
R 9  16030009.818    85599357.520       -2927.775          52.000    16030008.844    66577276.336       -2277.128          51.000  
R11  19425823.400   103805712.940        2884.283          48.000    19425823.550    80737795.846        2243.000          41.000  
R 8  15642318.965    83763907.261        -982.982          52.000    15642316.922    65149697.948        -764.614          49.000  
G30  20985585.662   110279991.303        2355.172          34.000    20985590.600    85932413.030        1835.687          33.000  
R 1  17506418.233    93581839.028        2288.379          47.000    17506420.102    72785881.513        1779.955          43.000  
> 2020  1  1 22 15 50.9880000  0  8                     
G27  19649136.417   103256911.853        1779.879          42.000    19649133.475    80459921.228        1387.033          41.000  
G 7  18420233.959    96798981.664        1417.134          49.000    18420228.407    75427758.081        1104.157          45.000  
G 9  16506771.346    86743667.895        -888.579          51.000    16506767.505    67592454.048        -692.359          49.000  
R 9  16030557.959    85602285.392       -2928.555          52.000    16030557.127    66579553.577       -2277.760          52.000  
R11  19425283.818   103802828.706        2883.728          48.000    19425283.707    80735552.560        2242.657          41.000  
R 8  15642502.701    83764890.525        -984.112          51.000    15642500.467    65150462.710        -765.548          49.000  
G30  20985137.268   110277635.602        2355.350          35.000    20985141.930    85930577.400        1835.656          33.000  
R 1  17505990.201    93579550.832        2287.535          47.000    17505992.062    72784101.809        1779.243          44.000  
> 2020  1  1 22 15 51.9880000  0  8                     
G27  19648797.742   103255131.897        1779.642          41.000    19648794.803    80458534.253        1386.491          41.000  
G 7  18419964.305    96797564.527        1416.769          49.000    18419958.670    75426653.817        1103.981          45.000  
G 9  16506940.506    86744556.488        -889.062          51.000    16506936.571    67593146.459        -692.865          49.000  
R 9  16031106.434    85605213.937       -2929.033          52.000    16031105.627    66581831.333       -2278.175          51.000  
R11  19424744.156   103799944.842        2883.623          48.000    19424744.191    80733309.560        2242.591          41.000  
R 8  15642686.504    83765874.814        -985.001          51.000    15642684.323    65151228.261        -766.098          49.000  
G30  20984689.012   110275280.192        2355.085          34.000    20984693.407    85928742.021        1835.526          33.000  
R 1  17505562.350    93577263.332        2286.991          47.000    17505564.180    72782322.655        1778.573          43.000  
> 2020  1  1 22 15 52.9880000  0  8                     
G27  19648458.992   103253352.375        1779.384          42.000    19648456.167    80457147.610        1386.469          41.000  
G 7  18419694.641    96796147.624        1417.019          50.000    18419689.069    75425549.734        1104.126          45.000  
G 9  16507109.713    86745445.652        -889.160          52.000    16507105.620    67593839.315        -692.941          49.000  
R 9  16031655.010    85608142.984       -2929.140          53.000    16031654.126    66584109.478       -2278.210          52.000  
R11  19424204.556   103797061.174        2883.881          48.000    19424204.542    80731066.701        2243.037          41.000  
R 8  15642870.494    83766859.973        -985.403          52.000    15642868.150    65151994.497        -766.367          49.000  
G30  20984240.956   110272924.827        2355.502          35.000    20984244.847    85926906.649        1836.025          34.000  
R 1  17505134.603    93574976.367        2286.881          48.000    17505136.270    72780543.882        1779.086          44.000  
> 2020  1  1 22 15 53.9880000  0  8                     
G27  19648120.305   103251572.769        1779.516          42.000    19648117.454    80455760.908        1386.602          41.000  
G 7  18419424.984    96794730.467        1417.005          50.000    18419419.369    75424445.460        1103.974          45.000  
G 9  16507278.877    86746334.898        -889.581          52.000    16507275.016    67594532.231        -693.081          49.000  
R 9  16032203.558    85611072.070       -2929.460          53.000    16032202.606    66586387.654       -2278.433          52.000  
R11  19423664.822   103794177.259        2883.601          48.000    19423664.876    80728823.666        2242.852          42.000  
R 8  15643054.489    83767845.525        -986.159          51.000    15643052.198    65152761.040        -766.970          49.000  
G30  20983792.580   110270569.045        2355.552          35.000    20983796.551    85925071.021        1835.463          34.000  
R 1  17504706.709    93572689.428        2286.608          48.000    17504708.513    72778765.182        1778.361          44.000  
> 2020  1  1 22 15 54.9880000  0  8                     
G27  19647781.595   103249793.366        1779.308          42.000    19647778.814    80454374.339        1386.691          41.000  
G 7  18419155.259    96793313.294        1417.231          50.000    18419149.595    75423341.181        1104.105          45.000  
G 9  16507448.108    86747224.468        -889.648          52.000    16507444.304    67595225.413        -693.506          49.000  
R 9  16032752.087    85614001.386       -2929.439          52.000    16032751.152    66588666.009       -2278.437          52.000  
R11  19423125.104   103791293.324        2883.967          48.000    19423125.205    80726580.612        2242.939          42.000  
R 8  15643238.544    83768831.696        -986.395          52.000    15643236.405    65153528.063        -767.230          49.000  
G30  20983344.192   110268213.073        2356.274          35.000    20983347.970    85923235.177        1835.984          34.000  
R 1  17504278.847    93570402.764        2286.573          48.000    17504280.714    72776986.650        1778.419          44.000  
> 2020  1  1 22 15 55.9880000  0  8                     
G27  19647442.997   103248013.982        1779.366          42.000    19647440.103    80452987.807        1386.612          41.000  
G 7  18418885.563    96791895.981        1417.242          50.000    18418880.014    75422236.764        1104.383          46.000  
G 9  16507617.406    86748114.222        -889.924          52.000    16507613.593    67595918.715        -693.402          49.000  
R 9  16033300.601    85616930.852       -2929.562          52.000    16033299.818    66590944.478       -2278.494          52.000  
R11  19422585.331   103788409.248        2884.147          48.000    19422585.574    80724337.453        2243.060          42.000  
R 8  15643422.801    83769818.348        -986.942          52.000    15643420.622    65154295.457        -767.568          49.000  
G30  20982895.703   110265856.853        2356.252          35.000    20982899.615    85921399.178        1836.129          34.000  
R 1  17503851.120    93568116.244        2286.368          48.000    17503853.036    72775208.247        1778.360          43.000  
> 2020  1  1 22 15 56.9880000  0  8                     
G27  19647104.429   103246234.977        1778.716          42.000    19647101.535    80451601.573        1385.844          41.000  
G 7  18418615.864    96790478.867        1417.000          50.000    18418610.416    75421132.521        1104.225          46.000  
G 9  16507786.833    86749004.519        -890.469          52.000    16507783.022    67596612.455        -693.915          49.000  
R 9  16033849.303    85619860.793       -2930.174          52.000    16033848.596    66593223.327       -2279.117          52.000  
R11  19422045.671   103785525.317        2883.832          48.000    19422045.947    80722094.382        2242.954          42.000  
R 8  15643607.246    83770805.834        -987.981          52.000    15643605.088    65155063.497        -768.431          49.000  
G30  20982447.412   110263500.642        2356.270          35.000    20982451.262    85919563.166        1836.062          34.000  
R 1  17503423.439    93565830.233        2285.742          48.000    17503425.391    72773430.241        1777.730          43.000  
> 2020  1  1 22 15 57.9880000  0  8                     
G27  19646766.057   103244456.554        1778.288          42.000    19646763.033    80450215.794        1385.511          41.000  
G 7  18418346.271    96789062.149        1416.565          50.000    18418340.883    75420028.583        1103.728          46.000  
G 9  16507956.371    86749895.543        -891.251          52.000    16507952.560    67597306.764        -694.468          49.000  
R 9  16034398.103    85622791.395       -2930.908          52.000    16034397.344    66595502.684       -2279.576          52.000  
R11  19421506.008   103782641.730        2883.425          48.000    19421506.445    80719851.610        2242.565          42.000  
R 8  15643791.834    83771794.320        -988.882          52.000    15643789.667    65155832.322        -769.082          49.000  
G30  20981998.939   110261144.691        2355.914          35.000    20982003.152    85917727.332        1836.067          34.000  
R 1  17502995.954    93563544.928        2285.085          48.000    17502997.887    72771652.785        1777.189          43.000  
> 2020  1  1 22 15 58.9880000  0  8                     
G27  19646427.754   103242678.383        1777.975          43.000    19646424.719    80448830.218        1385.286          41.000  
G 7  18418076.685    96787645.522        1416.421          50.000    18418071.270    75418924.729        1103.561          46.000  
G 9  16508126.031    86750786.999        -891.803          52.000    16508122.202    67598001.401        -694.915          49.000  
R 9  16034946.913    85625722.344       -2931.285          52.000    16034946.231    66597782.313       -2279.994          52.000  
R11  19420966.333   103779758.217        2883.398          48.000    19420966.807    80717608.869        2242.575          43.000  
R 8  15643976.529    83772783.547        -989.848          52.000    15643974.339    65156601.723        -769.842          50.000  
G30  20981550.328   110258788.622        2356.217          35.000    20981554.808    85915891.496        1835.979          34.000  
R 1  17502568.480    93561260.022        2284.547          48.000    17502570.399    72769875.627        1776.939          43.000  
> 2020  1  1 22 15 59.9880000  0  8                     
G27  19646089.475   103240900.420        1777.972          43.000    19646086.191    80447444.775        1385.476          41.000  
G 7  18417807.113    96786228.899        1416.576          50.000    18417801.745    75417820.858        1103.896          46.000  
G 9  16508295.813    86751678.798        -892.038          52.000    16508291.922    67598696.304        -694.864          49.000  
R 9  16035495.824    85628653.560       -2931.326          52.000    16035495.202    66600062.146       -2279.826          52.000  
R11  19420426.769   103776874.703        2883.507          48.000    19420427.223    80715366.144        2242.677          43.000  
R 8  15644161.315    83773773.424        -990.204          52.000    15644159.196    65157371.628        -770.115          50.000  
G30  20981101.855   110256432.449        2356.349          35.000    20981106.357    85914055.507        1836.116          35.000  
R 1  17502140.965    93558975.408        2284.480          48.000    17502142.923    72768098.707        1776.930          43.000  
> 2020  1  1 22 16  0.9880000  0  8                     
G27  19645751.151   103239122.806        1777.173          43.000    19645747.973    80446059.634        1385.090          41.000  
G 7  18417537.527    96784812.457        1416.052          50.000    18417532.152    75416717.142        1103.389          46.000  
G 9  16508465.634    86752571.107        -892.833          52.000    16508461.836    67599391.607        -695.599          49.000  
R 9  16036044.891    85631585.211       -2932.035          52.000    16036044.249    66602342.317       -2280.522          52.000  
R11  19419887.355   103773991.362        2882.974          48.000    19419887.681    80713123.531        2242.260          43.000  
R 8  15644346.320    83774764.145        -991.385          52.000    15644344.244    65158142.184        -770.957          50.000  
G30  20980653.446   110254076.281        2355.514          35.000    20980658.098    85912219.498        1836.159          35.000  
R 1  17501713.620    93556691.288        2283.644          48.000    17501715.578    72766322.159        1776.188          43.000  
> 2020  1  1 22 16  1.9880000  0  8                     
G27  19645413.171   103237346.017        1776.714          43.000    19645409.870    80444675.134        1384.416          41.000  
G 7  18417268.053    96783396.636        1415.664          50.000    18417262.652    75415613.911        1103.161          46.000  
G 9  16508635.587    86753464.382        -893.708          52.000    16508631.850    67600087.670        -696.337          49.000  
R 9  16036594.119    85634517.797       -2932.977          52.000    16036593.380    66604623.217       -2281.125          52.000  
R11  19419347.934   103771108.630        2882.526          48.000    19419348.343    80710881.427        2241.740          43.000  
R 8  15644531.651    83775756.155        -992.509          52.000    15644529.532    65158913.758        -771.939          49.000  
G30  20980205.069   110251720.575        2355.865          35.000    20980210.169    85910383.913        1835.249          35.000  
R 1  17501286.510    93554408.106        2282.841          48.000    17501288.599    72764546.360        1775.663          43.000  
> 2020  1  1 22 16  2.9880000  0  8                     
G27  19645075.127   103235569.860        1776.058          43.000    19645071.905    80443291.114        1383.990          40.000  
G 7  18416998.726    96781981.267        1415.223          50.000    18416993.220    75414511.030        1102.522          46.000  
G 9  16508805.693    86754358.451        -894.478          52.000    16508801.981    67600784.341        -696.880          49.000  
R 9  16037143.343    85637451.091       -2933.657          52.000    16037142.772    66606904.665       -2281.647          52.000  
R11  19418808.473   103768226.310        2882.208          48.000    19418809.050    80708639.615        2241.843          44.000  
R 8  15644717.101    83776749.231        -993.526          52.000    15644715.099    65159686.149        -772.802          49.000  
G30  20979756.836   110249365.138        2355.902          35.000    20979761.825    85908548.541        1834.745          35.000  
R 1  17500859.466    93552125.662        2281.986          48.000    17500861.659    72762771.138        1774.755          43.000  
> 2020  1  1 22 16  3.9880000  0  8                     
G27  19644737.281   103233794.311        1775.253          43.000    19644733.995    80441907.560        1383.359          41.000  
G 7  18416729.548    96780566.347        1414.756          50.000    18416723.981    75413408.492        1102.424          46.000  
G 9  16508975.925    86755253.290        -895.142          52.000    16508972.334    67601481.625        -697.586          49.000  
R 9  16037692.788    85640385.103       -2934.399          52.000    16037692.271    66609186.677       -2282.265          52.000  
R11  19418269.215   103765344.409        2881.793          48.000    19418269.744    80706398.131        2241.311          44.000  
R 8  15644902.777    83777743.395        -994.671          51.000    15644900.752    65160459.386        -773.647          49.000  
G30  20979308.458   110247010.039        2354.786          35.000    20979313.406    85906713.385        1834.615          35.000  
R 1  17500432.721    93549843.964        2281.377          48.000    17500434.861    72760996.488        1774.196          43.000  
> 2020  1  1 22 16  4.9880000  0  8                     
G27  19644399.471   103232019.194        1774.715          43.000    19644396.176    80440524.364        1383.103          41.000  
G 7  18416460.332    96779151.657        1414.419          50.000    18416454.831    75412306.130        1102.353          46.000  
G 9  16509146.309    86756148.701        -895.615          51.000    16509142.604    67602179.346        -697.874          49.000  
R 9  16038242.342    85643319.656       -2934.760          52.000    16038241.842    66611469.109       -2282.589          52.000  
R11  19417729.771   103762462.696        2881.448          48.000    19417730.592    80704156.801        2241.288          43.000  
R 8  15645088.605    83778738.415        -995.483          51.000    15645086.611    65161233.291        -774.230          49.000  
G30  20978860.256   110244654.964        2354.736          35.000    20978865.061    85904878.219        1835.283          35.000  
R 1  17500005.889    93547562.801        2280.860          48.000    17500008.153    72759222.238        1774.056          43.000  
> 2020  1  1 22 16  5.9880000  0  8                     
G27  19644061.782   103230244.501        1774.208          43.000    19644058.571    80439141.487        1382.402          41.000  
G 7  18416191.072    96777737.201        1414.103          50.000    18416185.722    75411203.969        1101.861          46.000  
G 9  16509316.816    86757044.683        -896.522          52.000    16509313.148    67602877.520        -698.588          49.000  
R 9  16038792.015    85646254.680       -2935.287          52.000    16038791.450    66613751.916       -2283.181          52.000  
R11  19417190.484   103759581.221        2881.233          48.000    19417191.361    80701915.661        2240.850          44.000  
R 8  15645274.650    83779734.309        -996.523          51.000    15645272.590    65162007.876        -775.021          49.000  
G30  20978412.033   110242299.985        2354.458          34.000    20978416.713    85903043.198        1834.534          35.000  
R 1  17499579.186    93545282.193        2280.062          48.000    17499581.390    72757448.428        1773.639          43.000  
> 2020  1  1 22 16  6.9880000  0  8                     
G27  19643724.232   103228470.662        1773.395          43.000    19643721.013    80437759.282        1381.833          41.000  
G 7  18415921.918    96776323.418        1413.549          50.000    18415916.633    75410102.330        1101.262          46.000  
G 9  16509487.499    86757941.683        -897.480          51.000    16509483.742    67603576.472        -699.230          49.000  
R 9  16039341.840    85649190.660       -2936.423          52.000    16039341.328    66616035.451       -2283.978          52.000  
R11  19416651.341   103756700.452        2880.508          48.000    19416652.372    80699675.054        2240.361          44.000  
R 8  15645460.767    83780731.536        -997.849          51.000    15645458.797    65162783.494        -776.026          50.000  
G30  20977963.919   110239945.492        2354.331          34.000    20977968.437    85901208.499        1834.872          35.000  
R 1  17499152.856    93543002.564        2279.103          48.000    17499154.865    72755675.374        1772.911          43.000  
> 2020  1  1 22 16  7.9880000  0  8                     
G27  19643386.708   103226697.511        1772.900          43.000    19643383.586    80436377.609        1381.401          41.000  
G 7  18415652.954    96774910.131        1413.158          50.000    18415647.843    75409001.052        1101.264          46.000  
G 9  16509658.263    86758839.503        -898.266          51.000    16509654.612    67604276.079        -699.855          49.000  
R 9  16039891.811    85652127.410       -2937.043          52.000    16039891.320    66618319.585       -2284.384          52.000  
R11  19416112.303   103753820.191        2880.127          48.000    19416113.330    80697434.842        2240.149          44.000  
R 8  15645647.245    83781729.913        -998.898          51.000    15645645.194    65163560.014        -776.897          50.000  
G30  20977515.841   110237591.356        2354.448          34.000    20977520.207    85899374.140        1834.331          35.000  
R 1  17498726.591    93540723.741        2278.628          48.000    17498728.692    72753902.969        1772.284          43.000  
> 2020  1  1 22 16  8.9880000  0  8                     
G27  19643049.476   103224925.095        1771.831          43.000    19643046.343    80434996.512        1380.534          41.000  
G 7  18415384.145    96773497.404        1412.217          50.000    18415378.958    75407900.229        1100.445          46.000  
G 9  16509829.299    86759738.214        -899.225          51.000    16509825.564    67604976.374        -700.772          49.000  
R 9  16040441.961    85655064.999       -2938.208          52.000    16040441.583    66620604.375       -2285.234          52.000  
R11  19415573.388   103750940.414        2879.336          48.000    19415574.471    80695195.022        2239.520          44.000  
R 8  15645833.990    83782729.479       -1000.302          51.000    15645831.906    65164337.460        -778.111          49.000  
G30  20977067.912   110235237.650        2352.959          35.000    20977072.051    85897540.066        1834.011          35.000  
R 1  17498300.596    93538445.784        2277.173          48.000    17498302.586    72752131.237        1771.109          43.000  
> 2020  1  1 22 16  9.9880000  0  8                     
G27  19642712.337   103223153.665        1771.200          43.000    19642709.269    80433616.183        1380.042          41.000  
G 7  18415115.501    96772085.491        1411.646          50.000    18415110.350    75406800.044        1099.918          46.000  
G 9  16510000.596    86760638.084        -900.324          51.000    16509996.784    67605677.570        -701.614          49.000  
R 9  16040992.282    85658003.699       -2939.028          52.000    16040991.824    66622890.035       -2286.001          52.000  
R11  19415034.591   103748061.418        2878.691          48.000    19415035.677    80692955.797        2239.084          44.000  
R 8  15646020.943    83783730.517       -1001.607          51.000    15646018.862    65165116.041        -778.967          49.000  
G30  20976620.173   110232884.586        2352.412          35.000    20976624.023    85895706.489        1833.705          35.000  
R 1  17497874.735    93536168.961        2276.432          48.000    17497876.625    72750360.380        1770.526          43.000  
> 2020  1  1 22 16 10.9880000  0  8                     
G27  19642375.417   103221383.185        1770.174          43.000    19642372.351    80432236.590        1379.118          41.000  
G 7  18414847.106    96770674.328        1410.955          50.000    18414841.901    75405700.430        1099.375          46.000  
G 9  16510172.069    86761539.037        -901.347          51.000    16510168.228    67606379.609        -702.404          49.000  
R 9  16041542.793    85660943.395       -2940.128          52.000    16041542.347    66625176.462       -2286.649          52.000  
R11  19414495.925   103745183.173        2878.005          47.000    19414497.116    80690717.153        2238.526          44.000  
R 8  15646208.125    83784732.951       -1002.999          51.000    15646205.979    65165895.711        -780.002          49.000  
G30  20976172.455   110230532.082        2352.509          35.000    20976176.155    85893873.400        1832.904          35.000  
R 1  17497448.988    93533893.175        2275.598          48.000    17497451.023    72748590.332        1769.636          43.000  
> 2020  1  1 22 16 11.9880000  0  8                     
G27  19642038.677   103219613.702        1769.101          43.000    19642035.537    80430857.776        1378.376          41.000  
G 7  18414578.720    96769263.981        1409.990          50.000    18414573.550    75404601.463        1098.640          46.000  
G 9  16510343.628    86762441.136        -902.531          51.000    16510339.867    67607082.545        -703.314          49.000  
R 9  16042093.565    85663884.203       -2941.201          52.000    16042093.127    66627463.771       -2287.701          52.000  
R11  19413957.325   103742305.747        2877.038          48.000    19413958.683    80688479.166        2237.645          44.000  
R 8  15646395.485    83785736.872       -1004.655          51.000    15646393.447    65166676.538        -781.349          49.000  
G30  20975724.850   110228180.243        2351.387          35.000    20975728.283    85892040.809        1832.604          35.000  
R 1  17497023.405    93531618.535        2274.165          48.000    17497025.541    72746821.163        1768.738          43.000  
> 2020  1  1 22 16 12.9880000  0  8                     
G27  19641702.174   103217845.350        1768.098          43.000    19641699.122    80429479.836        1377.574          41.000  
G 7  18414310.513    96767854.576        1409.422          50.000    18414305.315    75403503.235        1098.096          46.000  
G 9  16510515.523    86763344.532        -903.745          51.000    16510511.883    67607786.489        -704.189          49.000  
R 9  16042644.497    85666826.287       -2942.431          52.000    16042644.133    66629752.043       -2288.567          52.000  
R11  19413419.108   103739429.259        2876.345          48.000    19413420.387    80686241.897        2237.080          44.000  
R 8  15646583.122    83786742.389       -1005.960          51.000    15646581.211    65167458.603        -782.447          49.000  
G30  20975277.384   110225829.196        2351.375          35.000    20975280.722    85890208.844        1831.709          35.000  
R 1  17496598.165    93529345.130        2273.179          48.000    17496600.274    72745052.957        1768.012          43.000  
> 2020  1  1 22 16 13.9880000  0  8                     
G27  19641365.923   103216078.161        1766.897          43.000    19641362.969    80428102.800        1376.908          41.000  
G 7  18414042.570    96766446.163        1408.243          50.000    18414037.305    75402405.767        1097.220          46.000  
G 9  16510687.851    86764249.228        -904.925          52.000    16510684.185    67608491.452        -705.245          49.000  
R 9  16043195.748    85669769.586       -2943.685          52.000    16043195.398    66632041.275       -2289.419          52.000  
R11  19412881.168   103736553.763        2875.228          48.000    19412882.437    80684005.399        2236.328          44.000  
R 8  15646771.313    83787749.545       -1007.679          51.000    15646769.297    65168241.944        -783.709          50.000  
G30  20974830.051   110223479.013        2349.624          35.000    20974833.359    85888377.488        1831.471          35.000  
R 1  17496173.183    93527073.026        2271.709          48.000    17496175.248    72743285.770        1766.871          43.000  
> 2020  1  1 22 16 14.9880000  0  8                     
G27  19641029.798   103214311.872        1765.596          43.000    19641026.871    80426726.482        1375.490          41.000  
G 7  18413774.734    96765038.467        1406.933          50.000    18413769.420    75401308.857        1096.445          46.000  
G 9  16510860.194    86765154.987        -906.599          51.000    16510856.511    67609197.238        -706.370          49.000  
R 9  16043747.113    85672713.885       -2945.202          52.000    16043746.825    66634331.292       -2290.762          52.000  
R11  19412343.222   103733678.965        2873.948          48.000    19412344.459    80681769.445        2235.291          44.000  
R 8  15646959.710    83788758.056       -1009.570          51.000    15646957.621    65169026.346        -785.235          50.000  
G30  20974382.756   110221129.336        2349.116          35.000    20974385.957    85886546.588        1830.758          35.000  
R 1  17495748.319    93524801.948        2270.196          48.000    17495750.284    72741519.375        1765.715          43.000  
> 2020  1  1 22 16 15.9880000  0  8                     
G27  19640694.025   103212546.614        1764.898          43.000    19640690.983    80425350.945        1375.331          41.000  
G 7  18413507.039    96763631.614        1406.479          50.000    18413501.768    75400212.611        1096.074          46.000  
G 9  16511032.839    86766061.928        -907.561          51.000    16511029.084    67609903.946        -707.081          49.000  
R 9  16044298.639    85675659.309       -2945.869          52.000    16044298.384    66636622.180       -2291.301          52.000  
R11  19411805.451   103730804.977        2873.702          48.000    19411806.645    80679534.128        2234.970          44.000  
R 8  15647148.217    83789768.056       -1010.740          51.000    15647146.245    65169811.897        -786.030          50.000  
G30  20973935.827   110218780.357        2348.693          34.000    20973938.814    85884716.250        1829.587          35.000  
R 1  17495323.681    93522532.044        2269.395          48.000    17495325.616    72739753.899        1764.976          43.000  
> 2020  1  1 22 16 16.9880000  0  8                     
G27  19640358.384   103210782.360        1763.744          43.000    19640355.284    80423976.206        1374.365          41.000  
G 7  18413239.488    96762225.568        1405.658          50.000    18413234.254    75399117.000        1095.304          46.000  
G 9  16511205.646    86766970.019        -908.693          51.000    16511201.900    67610611.552        -708.077          49.000  
R 9  16044850.434    85678605.828       -2947.068          52.000    16044850.127    66638913.915       -2292.133          52.000  
R11  19411267.813   103727931.780        2872.813          48.000    19411269.039    80677299.415        2234.582          44.000  
R 8  15647337.033    83790779.506       -1012.226          51.000    15647335.030    65170598.584        -787.306          50.000  
G30  20973488.878   110216432.059        2347.770          34.000    20973491.791    85882886.412        1829.008          35.000  
R 1  17494899.327    93520263.263        2268.168          48.000    17494901.194    72737989.286        1764.178          43.000  
> 2020  1  1 22 16 17.9880000  0  8                     
G27  19640022.909   103209019.178        1762.626          43.000    19640019.721    80422602.301        1373.643          41.000  
G 7  18412972.159    96760820.423        1404.631          50.000    18412966.817    75398022.079        1094.557          46.000  
G 9  16511378.665    86767879.340        -909.912          51.000    16511374.899    67611320.107        -709.022          49.000  
R 9  16045402.528    85681553.533       -2948.281          52.000    16045402.092    66641206.575       -2293.136          52.000  
R11  19410730.294   103725059.490        2871.793          48.000    19410731.606    80675065.413        2233.571          44.000  
R 8  15647526.047    83791792.509       -1013.754          51.000    15647524.236    65171386.474        -788.506          50.000  
G30  20973042.233   110214084.446        2347.793          34.000    20973044.911    85881057.091        1829.379          35.000  
R 1  17494475.119    93517995.676        2266.962          48.000    17494476.915    72736225.612        1763.090          43.000  
> 2020  1  1 22 16 18.9880000  0  8                     
G27  19639687.464   103207256.965        1761.398          43.000    19639684.427    80421229.139        1372.617          41.000  
G 7  18412704.872    96759416.048        1403.713          50.000    18412699.542    75396927.750        1093.990          46.000  
G 9  16511551.985    86768789.776        -911.234          51.000    16511548.207    67612029.539        -709.969          49.000  
R 9  16045954.752    85684502.284       -2949.710          53.000    16045954.396    66643500.045       -2294.086          52.000  
R11  19410192.892   103722187.975        2870.801          48.000    19410194.309    80672832.019        2232.751          44.000  
R 8  15647715.411    83792806.953       -1015.552          51.000    15647713.622    65172175.479        -789.764          50.000  
G30  20972595.604   110211737.491        2346.724          35.000    20972598.130    85879228.297        1828.221          35.000  
R 1  17494051.328    93515729.176        2265.558          48.000    17494052.928    72734462.781        1762.101          43.000  
> 2020  1  1 22 16 19.9880000  0  8                     
G27  19639352.442   103205496.071        1760.353          43.000    19639349.365    80419857.023        1371.545          41.000  
G 7  18412437.832    96758012.817        1402.778          50.000    18412432.565    75395834.339        1093.045          46.000  
G 9  16511725.366    86769701.681        -912.442          51.000    16511721.815    67612740.121        -711.021          49.000  
R 9  16046507.146    85687452.449       -2950.702          53.000    16046506.783    66645794.628       -2294.969          52.000  
R11  19409655.784   103719317.599        2869.986          48.000    19409657.260    80670599.506        2232.174          44.000  
R 8  15647905.096    83793823.187       -1016.952          51.000    15647903.376    65172965.890        -790.978          50.000  
G30  20972149.086   110209391.507        2345.890          34.000    20972151.571    85877400.274        1827.490          35.000  
R 1  17493627.570    93513464.123        2264.588          48.000    17493629.142    72732701.070        1761.404          43.000  
> 2020  1  1 22 16 20.9880000  0  8                     
G27  19639017.585   103203736.437        1758.578          43.000    19639014.574    80418485.874        1370.266          41.000  
G 7  18412170.945    96756610.654        1401.375          50.000    18412165.727    75394741.739        1091.956          46.000  
G 9  16511899.127    86770614.988        -914.195          51.000    16511895.612    67613451.785        -712.313          49.000  
R 9  16047059.917    85690403.984       -2952.450          53.000    16047059.503    66648090.266       -2296.405          52.000  
R11  19409118.718   103716448.267        2868.628          48.000    19409120.351    80668367.806        2231.019          44.000  
R 8  15648095.142    83794841.141       -1019.008          51.000    15648093.564    65173757.635        -792.570          50.000  
G30  20971702.701   110207046.443        2344.180          35.000    20971705.196    85875572.948        1826.400          35.000  
R 1  17493204.122    93511200.461        2262.727          48.000    17493205.705    72730940.440        1759.899          43.000  
> 2020  1  1 22 16 21.9880000  0  8                     
G27  19638683.020   103201978.074        1757.433          43.000    19638679.897    80417115.715        1369.733          41.000  
G 7  18411904.322    96755209.591        1400.091          50.000    18411899.265    75393650.001        1091.046          46.000  
G 9  16512073.250    86771529.714        -915.680          51.000    16512069.669    67614164.562        -713.631          49.000  
R 9  16047613.004    85693356.888       -2953.838          53.000    16047612.510    66650386.973       -2297.485          52.000  
R11  19408581.983   103713580.013        2867.429          48.000    19408583.779    80666136.935        2230.208          44.000  
R 8  15648285.569    83795860.836       -1020.829          51.000    15648283.982    65174550.726        -793.951          50.000  
G30  20971256.635   110204702.320        2342.855          34.000    20971258.954    85873746.322        1825.739          35.000  
R 1  17492780.964    93508938.196        2261.236          48.000    17492782.387    72729180.896        1758.644          43.000  
> 2020  1  1 22 16 22.9880000  0  8                     
G27  19638348.721   103200220.968        1756.579          43.000    19638345.481    80415746.549        1368.692          41.000  
G 7  18411637.878    96753809.574        1399.583          50.000    18411632.829    75392559.077        1090.531          46.000  
G 9  16512247.493    86772445.846        -916.669          51.000    16512243.888    67614878.424        -714.340          49.000  
R 9  16048166.214    85696311.145       -2954.888          53.000    16048165.648    66652684.723       -2298.177          52.000  
R11  19408045.490   103710712.833        2866.722          48.000    19408047.244    80663906.913        2229.520          44.000  
R 8  15648476.397    83796882.228       -1022.060          51.000    15648474.616    65175345.143        -795.006          50.000  
G30  20970810.603   110202359.041        2343.103          35.000    20970812.908    85871920.406        1825.670          35.000  
R 1  17492358.084    93506677.311        2260.278          48.000    17492359.408    72727422.427        1758.025          43.000  
> 2020  1  1 22 16 23.9880000  0  8                     
G27  19638014.626   103198465.008        1755.013          43.000    19638011.461    80414378.288        1367.338          41.000  
G 7  18411371.687    96752410.543        1398.178          50.000    18411366.567    75391468.934        1089.377          46.000  
G 9  16512422.143    86773363.290        -918.454          51.000    16512418.489    67615593.317        -715.656          49.000  
R 9  16048719.701    85699266.640       -2956.457          52.000    16048719.121    66654983.443       -2299.452          52.000  
R11  19407509.154   103707846.637        2865.424          48.000    19407510.926    80661677.652        2228.591          45.000  
R 8  15648667.401    83797905.228       -1024.167          51.000    15648665.688    65176140.811        -796.546          49.000  
G30  20970364.888   110200016.611        2342.023          35.000    20970366.985    85870095.152        1824.440          35.000  
R 1  17491935.438    93504417.731        2258.547          48.000    17491936.595    72725664.966        1757.062          43.000  
> 2020  1  1 22 16 24.9880000  0  8                     
G27  19637680.783   103196710.558        1753.929          43.000    19637677.518    80413011.181        1366.324          41.000  
G 7  18411105.757    96751012.818        1397.262          50.000    18411100.597    75390379.786        1088.844          46.000  
G 9  16512597.047    86774282.381        -919.604          51.000    16512593.537    67616309.491        -716.609          49.000  
R 9  16049273.390    85702223.743       -2957.745          52.000    16049273.005    66657283.407       -2300.406          52.000  
R11  19406973.004   103704981.730        2864.349          48.000    19406974.844    80659449.388        2228.011          45.000  
R 8  15648858.808    83798930.206       -1025.763          51.000    15648857.109    65176938.011        -797.751          49.000  
G30  20969919.392   110197675.330        2341.110          35.000    20969921.325    85868270.784        1824.573          35.000  
R 1  17491513.115    93502159.787        2257.418          48.000    17491514.172    72723908.791        1755.762          43.000  
> 2020  1  1 22 16 25.9880000  0  8                     
G27  19637347.352   103194957.563        1752.275          43.000    19637343.989    80411645.198        1365.446          41.000  
G 7  18410840.040    96749616.390        1395.605          50.000    18410834.887    75389291.665        1087.570          46.000  
G 9  16512772.320    86775203.102        -921.759          51.000    16512768.784    67617026.938        -718.205          49.000  
R 9  16049827.402    85705182.406       -2959.509          52.000    16049827.156    66659584.593       -2301.834          52.000  
R11  19406437.094   103702118.102        2862.780          48.000    19406438.962    80657222.128        2226.662          45.000  
R 8  15649050.515    83799957.136       -1028.021          51.000    15649048.891    65177736.741        -799.569          49.000  
G30  20969474.176   110195335.187        2339.492          35.000    20969475.902    85866447.295        1822.858          35.000  
R 1  17491091.018    93499903.475        2255.301          48.000    17491092.147    72722153.879        1754.107          43.000  
> 2020  1  1 22 16 26.9880000  0  8                     
G27  19637014.024   103193206.047        1750.597          43.000    19637010.670    80410280.378        1364.197          41.000  
G 7  18410574.617    96748221.229        1394.351          50.000    18410569.361    75388204.534        1086.371          46.000  
G 9  16512947.803    86776125.427        -923.387          51.000    16512944.303    67617745.632        -719.477          49.000  
R 9  16050381.797    85708142.634       -2961.319          52.000    16050381.462    66661886.989       -2303.252          52.000  
R11  19405901.426   103699255.770        2861.376          48.000    19405903.361    80654995.871        2225.659          45.000  
R 8  15649242.625    83800986.027       -1030.026          51.000    15649241.109    65178536.992        -801.205          49.000  
G30  20969029.078   110192996.194        2337.377          34.000    20969030.643    85864624.690        1822.072          35.000  
R 1  17490669.240    93497648.732        2253.674          48.000    17490670.286    72720400.176        1752.965          43.000  
> 2020  1  1 22 16 27.9880000  0  8                     
G27  19636680.966   103191455.967        1748.635          43.000    19636677.627    80408916.691        1362.508          41.000  
G 7  18410309.359    96746827.334        1392.673          50.000    18410304.038    75387118.374        1085.184          46.000  
G 9  16513123.573    86777049.354        -925.332          51.000    16513120.182    67618465.580        -721.044          49.000  
R 9  16050936.469    85711104.399       -2963.143          52.000    16050936.063    66664190.588       -2304.781          52.000  
R11  19405366.004   103696394.712        2859.741          48.000    19405367.985    80652770.609        2224.257          45.000  
R 8  15649435.128    83802016.847       -1032.258          51.000    15649433.589    65179338.739        -802.888          49.000  
G30  20968584.078   110190658.246        2336.560          35.000    20968585.714    85862802.933        1820.919          35.000  
R 1  17490247.769    93495395.554        2251.982          48.000    17490248.706    72718647.704        1751.705          43.000  
> 2020  1  1 22 16 28.9880000  0  8                     
G27  19636348.207   103189707.191        1747.934          44.000    19636344.802    80407554.018        1362.055          40.000  
G 7  18410044.348    96745434.557        1392.070          50.000    18410039.061    75386033.085        1085.009          46.000  
G 9  16513299.606    86777974.728        -926.059          52.000    16513296.263    67619186.647        -721.672          49.000  
R 9  16051491.350    85714067.576       -2963.966          52.000    16051491.007    66666495.273       -2305.269          52.000  
R11  19404830.887   103693534.765        2859.356          48.000    19404832.798    80650546.204        2224.034          45.000  
R 8  15649627.925    83803049.425       -1033.538          51.000    15649626.326    65180141.859        -803.922          49.000  
G30  20968139.301   110188321.269        2336.534          35.000    20968140.879    85860981.904        1820.504          35.000  
R 1  17489826.516    93493143.835        2250.752          48.000    17489827.490    72716896.363        1750.868          43.000  
> 2020  1  1 22 16 29.9880000  0  8                     
G27  19636015.709   103187959.787        1746.759          43.000    19636012.414    80406192.403        1361.067          40.000  
G 7  18409779.581    96744042.975        1390.948          50.000    18409774.278    75384948.736        1083.986          46.000  
G 9  16513475.912    86778901.637        -927.742          52.000    16513472.675    67619908.911        -722.838          49.000  
R 9  16052046.606    85717032.222       -2965.367          53.000    16052046.207    66668801.101       -2306.336          52.000  
R11  19404295.812   103690675.992        2858.171          48.000    19404297.842    80648322.714        2223.040          45.000  
R 8  15649821.104    83804083.830       -1035.236          51.000    15649819.355    65180946.390        -805.238          49.000  
G30  20967694.771   110185985.347        2335.190          34.000    20967696.276    85859161.688        1819.985          35.000  
R 1  17489405.533    93490893.614        2249.520          48.000    17489406.617    72715146.201        1749.551          43.000  
> 2020  1  1 22 16 30.9880000  0  8                     
G27  19635683.450   103186213.748        1745.750          43.000    19635680.157    80404831.856        1360.456          40.000  
G 7  18409514.893    96742652.546        1390.217          50.000    18409509.720    75383865.302        1083.230          46.000  
G 9  16513652.603    86779830.036        -928.637          51.000    16513649.330    67620632.339        -723.672          49.000  
R 9  16052602.047    85719998.316       -2966.396          53.000    16052601.545    66671108.062       -2307.220          52.000  
R11  19403761.013   103687818.375        2857.328          48.000    19403763.100    80646100.127        2222.392          45.000  
R 8  15650014.618    83805120.047       -1036.801          51.000    15650012.751    65181752.331        -806.298          49.000  
G30  20967250.335   110183650.402        2334.441          34.000    20967251.795    85857342.294        1818.752          35.000  
R 1  17488984.854    93488644.880        2248.417          48.000    17488986.031    72713397.195        1748.821          43.000  
> 2020  1  1 22 16 31.9880000  0  8                     
G27  19635351.381   103184469.136        1743.500          43.000    19635348.170    80403472.428        1358.493          40.000  
G 7  18409250.546    96741263.369        1388.096          50.000    18409245.381    75382782.807        1081.897          46.000  
G 9  16513829.623    86780760.022        -931.044          51.000    16513826.313    67621357.008        -725.500          49.000  
R 9  16053157.771    85722965.953       -2968.813          53.000    16053157.267    66673416.223       -2309.005          52.000  
R11  19403226.513   103684962.007        2855.394          48.000    19403228.599    80643878.509        2220.889          45.000  
R 8  15650208.433    83806158.161       -1039.458          51.000    15650206.567    65182559.753        -808.335          49.000  
G30  20966806.173   110181316.562        2332.747          34.000    20966807.488    85855523.707        1817.716          35.000  
R 1  17488564.436    93486397.728        2246.013          48.000    17488565.764    72711649.408        1746.846          44.000  
> 2020  1  1 22 16 32.9880000  0  8                     
G27  19635019.650   103182726.060        1742.024          43.000    19635016.423    80402114.190        1357.396          40.000  
G 7  18408986.486    96739875.541        1386.819          50.000    18408981.307    75381701.395        1080.668          46.000  
G 9  16514006.952    86781691.692        -932.655          51.000    16514003.563    67622082.984        -726.758          49.000  
R 9  16053713.870    85725935.217       -2970.349          53.000    16053713.310    66675725.655       -2310.249          52.000  
R11  19402692.143   103682107.008        2853.949          48.000    19402694.356    80641657.953        2219.864          45.000  
R 8  15650402.653    83807198.277       -1041.316          51.000    15650400.782    65183368.737        -809.872          49.000  
G30  20966362.155   110178983.910        2331.610          34.000    20966363.560    85853706.042        1817.286          35.000  
