% (x/y/z-ecef=WGS84,Q=1:fix,2:float,3:sbas,4:dgps,5:single,6:ppp,ns=# of satellites)
%  GPST                      x-ecef(m)      y-ecef(m)      z-ecef(m)   Q  ns   sdx(m)   sdy(m)   sdz(m)  sdxy(m)  sdyz(m)  sdzx(m) age(s)  ratio
2020/01/01 22:15:42.000  -1640138.6633  -3666873.3362   4939023.6410   1  28   0.0099   0.0099   0.0100   0.0000   0.0000   0.0000   0.00    0.0
2020/01/01 22:15:43.000  -1640138.6627  -3666873.3350   4939023.6395   1  28   0.0099   0.0099   0.0100   0.0000   0.0000   0.0000   0.00    0.0
2020/01/01 22:15:44.000  -1640138.6635  -3666873.3368   4939023.6418   1  28   0.0099   0.0099   0.0100   0.0000   0.0000   0.0000   0.00    0.0
2020/01/01 22:15:45.000  -1640138.6645  -3666873.3391   4939023.6449   1  28   0.0099   0.0099   0.0100   0.0000   0.0000   0.0000   0.00    0.0
2020/01/01 22:15:46.000  -1640138.6650  -3666873.3402   4939023.6465   1  28   0.0099   0.0099   0.0100   0.0000   0.0000   0.0000   0.00    0.0
2020/01/01 22:15:47.000  -1640138.6648  -3666873.3396   4939023.6457   1  28   0.0099   0.0099   0.0100   0.0000   0.0000   0.0000   0.00    0.0
2020/01/01 22:15:48.000  -1640138.6635  -3666873.3368   4939023.6418   1  28   0.0099   0.0099   0.0100   0.0000   0.0000   0.0000   0.00    0.0
2020/01/01 22:15:49.000  -1640138.6638  -3666873.3373   4939023.6426   1  28   0.0099   0.0099   0.0100   0.0000   0.0000   0.0000   0.00    0.0
2020/01/01 22:15:50.000  -1640138.6620  -3666873.3333   4939023.6372   1  28   0.0099   0.0099   0.0100   0.0000   0.0000   0.0000   0.00    0.0
2020/01/01 22:15:51.000  -1640138.6630  -3666873.3356   4939023.6403   1  28   0.0099   0.0099   0.0100   0.0000   0.0000   0.0000   0.00    0.0
2020/01/01 22:15:52.000  -1640138.6630  -3666873.3356   4939023.6403   1  28   0.0099   0.0099   0.0100   0.0000   0.0000   0.0000   0.00    0.0
2020/01/01 22:15:53.000  -1640138.6630  -3666873.3356   4939023.6403   1  28   0.0099   0.0099   0.0100   0.0000   0.0000   0.0000   0.00    0.0
2020/01/01 22:15:54.000  -1640138.6627  -3666873.3350   4939023.6395   1  28   0.0099   0.0099   0.0100   0.0000   0.0000   0.0000   0.00    0.0
2020/01/01 22:15:55.000  -1640138.6630  -3666873.3356   4939023.6403   1  28   0.0099   0.0099   0.0100   0.0000   0.0000   0.0000   0.00    0.0
2020/01/01 22:15:56.000  -1640138.6656  -3666873.3413   4939023.6480   1  28   0.0099   0.0099   0.0100   0.0000   0.0000   0.0000   0.00    0.0
2020/01/01 22:15:57.000  -1640138.6658  -3666873.3419   4939023.6488   1  28   0.0099   0.0099   0.0100   0.0000   0.0000   0.0000   0.00    0.0
2020/01/01 22:15:58.000  -1640138.6676  -3666873.3459   4939023.6543   1  28   0.0099   0.0099   0.0100   0.0000   0.0000   0.0000   0.00    0.0
2020/01/01 22:15:59.000  -1640138.6732  -3666873.3414   4939023.6519   1  28   0.0099   0.0099   0.0100   0.0000   0.0000   0.0000   0.00    0.0
2020/01/01 22:16:00.000  -1640138.6658  -3666873.3419   4939023.6488   1  28   0.0099   0.0099   0.0100   0.0000   0.0000   0.0000   0.00    0.0
2020/01/01 22:16:01.000  -1640138.6648  -3666873.3396   4939023.6457   1  28   0.0099   0.0099   0.0100   0.0000   0.0000   0.0000   0.00    0.0
2020/01/01 22:16:02.000  -1640138.6704  -3666873.3350   4939023.6434   1  28   0.0099   0.0099   0.0100   0.0000   0.0000   0.0000   0.00    0.0
2020/01/01 22:16:03.000  -1640138.6645  -3666873.3391   4939023.6449   1  28   0.0099   0.0099   0.0100   0.0000   0.0000   0.0000   0.00    0.0
2020/01/01 22:16:04.000  -1640138.6648  -3666873.3396   4939023.6457   1  28   0.0099   0.0099   0.0100   0.0000   0.0000   0.0000   0.00    0.0
2020/01/01 22:16:05.000  -1640138.6709  -3666873.3362   4939023.6449   1  28   0.0099   0.0099   0.0100   0.0000   0.0000   0.0000   0.00    0.0
2020/01/01 22:16:06.000  -1640138.6712  -3666873.3368   4939023.6457   1  28   0.0099   0.0099   0.0100   0.0000   0.0000   0.0000   0.00    0.0
2020/01/01 22:16:07.000  -1640138.6702  -3666873.3345   4939023.6426   1  28   0.0099   0.0099   0.0100   0.0000   0.0000   0.0000   0.00    0.0
2020/01/01 22:16:08.000  -1640138.6707  -3666873.3356   4939023.6442   1  28   0.0099   0.0099   0.0100   0.0000   0.0000   0.0000   0.00    0.0
2020/01/01 22:16:09.000  -1640138.6707  -3666873.3356   4939023.6442   1  28   0.0099   0.0099   0.0100   0.0000   0.0000   0.0000   0.00    0.0
2020/01/01 22:16:10.000  -1640138.6704  -3666873.3350   4939023.6434   1  28   0.0099   0.0099   0.0100   0.0000   0.0000   0.0000   0.00    0.0
2020/01/01 22:16:11.000  -1640138.6709  -3666873.3362   4939023.6449   1  28   0.0099   0.0099   0.0100   0.0000   0.0000   0.0000   0.00    0.0
2020/01/01 22:16:12.000  -1640138.6697  -3666873.3333   4939023.6410   1  28   0.0099   0.0099   0.0100   0.0000   0.0000   0.0000   0.00    0.0
2020/01/01 22:16:13.000  -1640138.6689  -3666873.3316   4939023.6387   1  28   0.0099   0.0099   0.0100   0.0000   0.0000   0.0000   0.00    0.0
2020/01/01 22:16:14.000  -1640138.6697  -3666873.3333   4939023.6410   1  28   0.0099   0.0099   0.0100   0.0000   0.0000   0.0000   0.00    0.0
2020/01/01 22:16:15.000  -1640138.6697  -3666873.3333   4939023.6410   1  28   0.0099   0.0099   0.0100   0.0000   0.0000   0.0000   0.00    0.0
2020/01/01 22:16:16.000  -1640138.6699  -3666873.3339   4939023.6418   1  28   0.0099   0.0099   0.0100   0.0000   0.0000   0.0000   0.00    0.0
2020/01/01 22:16:17.000  -1640138.6702  -3666873.3345   4939023.6426   1  28   0.0099   0.0099   0.0100   0.0000   0.0000   0.0000   0.00    0.0
2020/01/01 22:16:18.000  -1640138.6694  -3666873.3327   4939023.6403   1  28   0.0099   0.0099   0.0100   0.0000   0.0000   0.0000   0.00    0.0
2020/01/01 22:16:19.000  -1640138.6689  -3666873.3316   4939023.6387   1  28   0.0099   0.0099   0.0100   0.0000   0.0000   0.0000   0.00    0.0
2020/01/01 22:16:20.000  -1640138.6697  -3666873.3333   4939023.6410   1  28   0.0099   0.0099   0.0100   0.0000   0.0000   0.0000   0.00    0.0
2020/01/01 22:16:21.000  -1640138.6697  -3666873.3333   4939023.6410   1  28   0.0099   0.0099   0.0100   0.0000   0.0000   0.0000   0.00    0.0
2020/01/01 22:16:22.000  -1640138.6671  -3666873.3277   4939023.6511   1  28   0.0099   0.0099   0.0100   0.0000   0.0000   0.0000   0.00    0.0
2020/01/01 22:16:23.000  -1640138.6709  -3666873.3362   4939023.6449   1  28   0.0099   0.0099   0.0100   0.0000   0.0000   0.0000   0.00    0.0
2020/01/01 22:16:24.000  -1640138.6709  -3666873.3362   4939023.6449   1  28   0.0099   0.0099   0.0100   0.0000   0.0000   0.0000   0.00    0.0
2020/01/01 22:16:25.000  -1640138.6709  -3666873.3362   4939023.6449   1  28   0.0099   0.0099   0.0100   0.0000   0.0000   0.0000   0.00    0.0
2020/01/01 22:16:26.000  -1640138.6702  -3666873.3345   4939023.6426   1  28   0.0099   0.0099   0.0100   0.0000   0.0000   0.0000   0.00    0.0
2020/01/01 22:16:27.000  -1640138.6704  -3666873.3350   4939023.6434   1  28   0.0099   0.0099   0.0100   0.0000   0.0000   0.0000   0.00    0.0
2020/01/01 22:16:28.000  -1640138.6697  -3666873.3333   4939023.6410   1  28   0.0099   0.0099   0.0100   0.0000   0.0000   0.0000   0.00    0.0
2020/01/01 22:16:29.000  -1640138.6674  -3666873.3283   4939023.6519   1  28   0.0099   0.0099   0.0100   0.0000   0.0000   0.0000   0.00    0.0
2020/01/01 22:16:30.000  -1640138.6714  -3666873.3373   4939023.6465   1  28   0.0099   0.0099   0.0100   0.0000   0.0000   0.0000   0.00    0.0
2020/01/01 22:16:31.000  -1640138.6709  -3666873.3362   4939023.6449   1  28   0.0099   0.0099   0.0100   0.0000   0.0000   0.0000   0.00    0.0
2020/01/01 22:16:32.000  -1640138.6720  -3666873.3385   4939023.6480   1  28   0.0099   0.0099   0.0100   0.0000   0.0000   0.0000   0.00    0.0
2020/01/01 22:16:33.000  -1640138.6720  -3666873.3385   4939023.6480   1  28   0.0099   0.0099   0.0100   0.0000   0.0000   0.0000   0.00    0.0
2020/01/01 22:16:34.000  -1640138.6722  -3666873.3391   4939023.6488   1  28   0.0099   0.0099   0.0100   0.0000   0.0000   0.0000   0.00    0.0
2020/01/01 22:16:35.000  -1640138.6707  -3666873.3356   4939023.6442   1  28   0.0099   0.0099   0.0100   0.0000   0.0000   0.0000   0.00    0.0
2020/01/01 22:16:36.000  -1640138.6684  -3666873.3305   4939023.6372   1  28   0.0099   0.0099   0.0100   0.0000   0.0000   0.0000   0.00    0.0
2020/01/01 22:16:37.000  -1640138.6681  -3666873.3299   4939023.6364   1  28   0.0099   0.0099   0.0100   0.0000   0.0000   0.0000   0.00    0.0
2020/01/01 22:16:38.000  -1640138.6697  -3666873.3333   4939023.6410   1  28   0.0099   0.0099   0.0100   0.0000   0.0000   0.0000   0.00    0.0
2020/01/01 22:16:39.000  -1640138.6709  -3666873.3362   4939023.6449   1  28   0.0099   0.0099   0.0100   0.0000   0.0000   0.0000   0.00    0.0
2020/01/01 22:16:40.000  -1640138.6717  -3666873.3379   4939023.6473   1  28   0.0099   0.0099   0.0100   0.0000   0.0000   0.0000   0.00    0.0
2020/01/01 22:16:41.000  -1640138.6732  -3666873.3414   4939023.6519   1  28   0.0099   0.0099   0.0100   0.0000   0.0000   0.0000   0.00    0.0
2020/01/01 22:16:42.000  -1640138.6727  -3666873.3402   4939023.6504   1  28   0.0099   0.0099   0.0100   0.0000   0.0000   0.0000   0.00    0.0
2020/01/01 22:16:43.000  -1640138.6722  -3666873.3391   4939023.6488   1  28   0.0099   0.0099   0.0100   0.0000   0.0000   0.0000   0.00    0.0
2020/01/01 22:16:44.000  -1640138.6714  -3666873.3373   4939023.6465   1  28   0.0099   0.0099   0.0100   0.0000   0.0000   0.0000   0.00    0.0
2020/01/01 22:16:45.000  -1640138.6712  -3666873.3368   4939023.6457   1  28   0.0099   0.0099   0.0100   0.0000   0.0000   0.0000   0.00    0.0
2020/01/01 22:16:46.000  -1640138.6697  -3666873.3333   4939023.6410   1  28   0.0099   0.0099   0.0100   0.0000   0.0000   0.0000   0.00    0.0
2020/01/01 22:16:47.000  -1640138.6699  -3666873.3339   4939023.6418   1  28   0.0099   0.0099   0.0100   0.0000   0.0000   0.0000   0.00    0.0
2020/01/01 22:16:48.000  -1640138.6709  -3666873.3362   4939023.6449   1  28   0.0099   0.0099   0.0100   0.0000   0.0000   0.0000   0.00    0.0
2020/01/01 22:16:49.000  -1640138.6709  -3666873.3362   4939023.6449   1  28   0.0099   0.0099   0.0100   0.0000   0.0000   0.0000   0.00    0.0
2020/01/01 22:16:50.000  -1640138.6704  -3666873.3350   4939023.6434   1  28   0.0099   0.0099   0.0100   0.0000   0.0000   0.0000   0.00    0.0
2020/01/01 22:16:51.000  -1640138.6707  -3666873.3356   4939023.6442   1  28   0.0099   0.0099   0.0100   0.0000   0.0000   0.0000   0.00    0.0
2020/01/01 22:16:52.000  -1640138.6709  -3666873.3362   4939023.6449   1  28   0.0099   0.0099   0.0100   0.0000   0.0000   0.0000   0.00    0.0
2020/01/01 22:16:53.000  -1640138.6717  -3666873.3379   4939023.6473   1  28   0.0099   0.0099   0.0100   0.0000   0.0000   0.0000   0.00    0.0
2020/01/01 22:16:54.000  -1640138.6709  -3666873.3362   4939023.6449   1  28   0.0099   0.0099   0.0100   0.0000   0.0000   0.0000   0.00    0.0
2020/01/01 22:16:55.000  -1640138.6707  -3666873.3356   4939023.6442   1  28   0.0099   0.0099   0.0100   0.0000   0.0000   0.0000   0.00    0.0
2020/01/01 22:16:56.000  -1640138.6709  -3666873.3362   4939023.6449   1  28   0.0099   0.0099   0.0100   0.0000   0.0000   0.0000   0.00    0.0
2020/01/01 22:16:57.000  -1640138.6712  -3666873.3368   4939023.6457   1  28   0.0099   0.0099   0.0100   0.0000   0.0000   0.0000   0.00    0.0
2020/01/01 22:16:58.000  -1640138.6712  -3666873.3368   4939023.6457   1  28   0.0099   0.0099   0.0100   0.0000   0.0000   0.0000   0.00    0.0
2020/01/01 22:16:59.000  -1640138.6714  -3666873.3373   4939023.6465   1  28   0.0099   0.0099   0.0100   0.0000   0.0000   0.0000   0.00    0.0
2020/01/01 22:17:00.000  -1640138.6707  -3666873.3356   4939023.6442   1  28   0.0099   0.0099   0.0100   0.0000   0.0000   0.0000   0.00    0.0
2020/01/01 22:17:01.000  -1640138.6704  -3666873.3350   4939023.6434   1  28   0.0099   0.0099   0.0100   0.0000   0.0000   0.0000   0.00    0.0
2020/01/01 22:17:02.000  -1640138.6712  -3666873.3368   4939023.6457   1  28   0.0099   0.0099   0.0100   0.0000   0.0000   0.0000   0.00    0.0
2020/01/01 22:17:03.000  -1640138.6714  -3666873.3373   4939023.6465   1  28   0.0099   0.0099   0.0100   0.0000   0.0000   0.0000   0.00    0.0
2020/01/01 22:17:04.000  -1640138.6709  -3666873.3362   4939023.6449   1  28   0.0099   0.0099   0.0100   0.0000   0.0000   0.0000   0.00    0.0
2020/01/01 22:17:05.000  -1640138.6712  -3666873.3368   4939023.6457   1  28   0.0099   0.0099   0.0100   0.0000   0.0000   0.0000   0.00    0.0
2020/01/01 22:17:06.000  -1640138.6694  -3666873.3327   4939023.6403   1  28   0.0099   0.0099   0.0100   0.0000   0.0000   0.0000   0.00    0.0
2020/01/01 22:17:07.000  -1640138.6691  -3666873.3322   4939023.6395   1  28   0.0099   0.0099   0.0100   0.0000   0.0000   0.0000   0.00    0.0
2020/01/01 22:17:08.000  -1640138.6702  -3666873.3345   4939023.6426   1  28   0.0099   0.0099   0.0100   0.0000   0.0000   0.0000   0.00    0.0
2020/01/01 22:17:09.000  -1640138.6709  -3666873.3362   4939023.6449   1  28   0.0099   0.0099   0.0100   0.0000   0.0000   0.0000   0.00    0.0
2020/01/01 22:17:10.000  -1640138.6707  -3666873.3356   4939023.6442   1  28   0.0099   0.0099   0.0100   0.0000   0.0000   0.0000   0.00    0.0
2020/01/01 22:17:11.000  -1640138.6702  -3666873.3345   4939023.6426   1  28   0.0099   0.0099   0.0100   0.0000   0.0000   0.0000   0.00    0.0
2020/01/01 22:17:12.000  -1640138.6709  -3666873.3362   4939023.6449   1  28   0.0099   0.0099   0.0100   0.0000   0.0000   0.0000   0.00    0.0
2020/01/01 22:17:13.000  -1640138.6704  -3666873.3350   4939023.6434   1  28   0.0099   0.0099   0.0100   0.0000   0.0000   0.0000   0.00    0.0
2020/01/01 22:17:14.000  -1640138.6707  -3666873.3356   4939023.6442   1  28   0.0099   0.0099   0.0100   0.0000   0.0000   0.0000   0.00    0.0
2020/01/01 22:17:15.000  -1640138.6702  -3666873.3345   4939023.6426   1  28   0.0099   0.0099   0.0100   0.0000   0.0000   0.0000   0.00    0.0
2020/01/01 22:17:16.000  -1640138.6704  -3666873.3350   4939023.6434   1  28   0.0099   0.0099   0.0100   0.0000   0.0000   0.0000   0.00    0.0
2020/01/01 22:17:17.000  -1640138.6717  -3666873.3379   4939023.6473   1  28   0.0099   0.0099   0.0100   0.0000   0.0000   0.0000   0.00    0.0
2020/01/01 22:17:18.000  -1640138.6707  -3666873.3356   4939023.6442   1  28   0.0099   0.0099   0.0100   0.0000   0.0000   0.0000   0.00    0.0
2020/01/01 22:17:19.000  -1640138.6702  -3666873.3345   4939023.6426   1  28   0.0099   0.0099   0.0100   0.0000   0.0000   0.0000   0.00    0.0
2020/01/01 22:17:20.000  -1640138.6699  -3666873.3339   4939023.6418   1  28   0.0099   0.0099   0.0100   0.0000   0.0000   0.0000   0.00    0.0
2020/01/01 22:17:21.000  -1640138.6699  -3666873.3339   4939023.6418   1  28   0.0099   0.0099   0.0100   0.0000   0.0000   0.0000   0.00    0.0
2020/01/01 22:17:22.000  -1640138.6697  -3666873.3333   4939023.6410   1  28   0.0099   0.0099   0.0100   0.0000   0.0000   0.0000   0.00    0.0
2020/01/01 22:17:23.000  -1640138.6699  -3666873.3339   4939023.6418   1  28   0.0099   0.0099   0.0100   0.0000   0.0000   0.0000   0.00    0.0
2020/01/01 22:17:24.000  -1640138.6707  -3666873.3356   4939023.6442   1  28   0.0099   0.0099   0.0100   0.0000   0.0000   0.0000   0.00    0.0
2020/01/01 22:17:25.000  -1640138.6712  -3666873.3368   4939023.6457   1  28   0.0099   0.0099   0.0100   0.0000   0.0000   0.0000   0.00    0.0
2020/01/01 22:17:26.000  -1640138.6714  -3666873.3373   4939023.6465   1  28   0.0099   0.0099   0.0100   0.0000   0.0000   0.0000   0.00    0.0
2020/01/01 22:17:27.000  -1640138.6702  -3666873.3345   4939023.6426   1  28   0.0099   0.0099   0.0100   0.0000   0.0000   0.0000   0.00    0.0
2020/01/01 22:17:28.000  -1640138.6691  -3666873.3322   4939023.6395   1  28   0.0099   0.0099   0.0100   0.0000   0.0000   0.0000   0.00    0.0
2020/01/01 22:17:29.000  -1640138.6694  -3666873.3327   4939023.6403   1  28   0.0099   0.0099   0.0100   0.0000   0.0000   0.0000   0.00    0.0
2020/01/01 22:17:30.000  -1640138.6684  -3666873.3305   4939023.6372   1  28   0.0099   0.0099   0.0100   0.0000   0.0000   0.0000   0.00    0.0
2020/01/01 22:17:31.000  -1640138.6684  -3666873.3305   4939023.6372   1  28   0.0099   0.0099   0.0100   0.0000   0.0000   0.0000   0.00    0.0
2020/01/01 22:17:32.000  -1640138.6689  -3666873.3316   4939023.6387   1  28   0.0099   0.0099   0.0100   0.0000   0.0000   0.0000   0.00    0.0
2020/01/01 22:17:33.000  -1640138.6691  -3666873.3322   4939023.6395   1  28   0.0099   0.0099   0.0100   0.0000   0.0000   0.0000   0.00    0.0
2020/01/01 22:17:34.000  -1640138.6691  -3666873.3322   4939023.6395   1  28   0.0099   0.0099   0.0100   0.0000   0.0000   0.0000   0.00    0.0
2020/01/01 22:17:35.000  -1640138.6691  -3666873.3322   4939023.6395   1  28   0.0099   0.0099   0.0100   0.0000   0.0000   0.0000   0.00    0.0
2020/01/01 22:17:36.000  -1640138.6697  -3666873.3333   4939023.6410   1  28   0.0099   0.0099   0.0100   0.0000   0.0000   0.0000   0.00    0.0
2020/01/01 22:17:37.000  -1640138.6697  -3666873.3333   4939023.6410   1  28   0.0099   0.0099   0.0100   0.0000   0.0000   0.0000   0.00    0.0
2020/01/01 22:17:38.000  -1640138.6691  -3666873.3322   4939023.6395   1  28   0.0099   0.0099   0.0100   0.0000   0.0000   0.0000   0.00    0.0
2020/01/01 22:17:39.000  -1640138.6689  -3666873.3316   4939023.6387   1  28   0.0099   0.0099   0.0100   0.0000   0.0000   0.0000   0.00    0.0
2020/01/01 22:17:40.000  -1640138.6689  -3666873.3316   4939023.6387   1  28   0.0099   0.0099   0.0100   0.0000   0.0000   0.0000   0.00    0.0
2020/01/01 22:17:41.000  -1640138.6694  -3666873.3327   4939023.6403   1  28   0.0099   0.0099   0.0100   0.0000   0.0000   0.0000   0.00    0.0
2020/01/01 22:17:42.000  -1640138.6704  -3666873.3350   4939023.6434   1  28   0.0099   0.0099   0.0100   0.0000   0.0000   0.0000   0.00    0.0
2020/01/01 22:17:43.000  -1640138.6704  -3666873.3350   4939023.6434   1  28   0.0099   0.0099   0.0100   0.0000   0.0000   0.0000   0.00    0.0
2020/01/01 22:17:44.000  -1640138.6702  -3666873.3345   4939023.6426   1  28   0.0099   0.0099   0.0100   0.0000   0.0000   0.0000   0.00    0.0
2020/01/01 22:17:45.000  -1640138.6707  -3666873.3356   4939023.6442   1  28   0.0099   0.0099   0.0100   0.0000   0.0000   0.0000   0.00    0.0
2020/01/01 22:17:46.000  -1640138.6709  -3666873.3362   4939023.6449   1  28   0.0099   0.0099   0.0100   0.0000   0.0000   0.0000   0.00    0.0
2020/01/01 22:17:47.000  -1640138.6704  -3666873.3350   4939023.6434   1  28   0.0099   0.0099   0.0100   0.0000   0.0000   0.0000   0.00    0.0
2020/01/01 22:17:48.000  -1640138.6697  -3666873.3333   4939023.6410   1  28   0.0099   0.0099   0.0100   0.0000   0.0000   0.0000   0.00    0.0
2020/01/01 22:17:49.000  -1640138.6694  -3666873.3327   4939023.6403   1  28   0.0099   0.0099   0.0100   0.0000   0.0000   0.0000   0.00    0.0
2020/01/01 22:17:50.000  -1640138.6702  -3666873.3345   4939023.6426   1  28   0.0099   0.0099   0.0100   0.0000   0.0000   0.0000   0.00    0.0
2020/01/01 22:17:51.000  -1640138.6707  -3666873.3356   4939023.6442   1  28   0.0099   0.0099   0.0100   0.0000   0.0000   0.0000   0.00    0.0
2020/01/01 22:17:52.000  -1640138.6709  -3666873.3362   4939023.6449   1  28   0.0099   0.0099   0.0100   0.0000   0.0000   0.0000   0.00    0.0
2020/01/01 22:17:53.000  -1640138.6699  -3666873.3339   4939023.6418   1  28   0.0099   0.0099   0.0100   0.0000   0.0000   0.0000   0.00    0.0
2020/01/01 22:17:54.000  -1640138.6699  -3666873.3339   4939023.6418   1  28   0.0099   0.0099   0.0100   0.0000   0.0000   0.0000   0.00    0.0
2020/01/01 22:17:55.000  -1640138.6689  -3666873.3316   4939023.6387   1  28   0.0099   0.0099   0.0100   0.0000   0.0000   0.0000   0.00    0.0
2020/01/01 22:17:56.000  -1640138.6691  -3666873.3322   4939023.6395   1  28   0.0099   0.0099   0.0100   0.0000   0.0000   0.0000   0.00    0.0
2020/01/01 22:17:57.000  -1640138.6689  -3666873.3316   4939023.6387   1  28   0.0099   0.0099   0.0100   0.0000   0.0000   0.0000   0.00    0.0
2020/01/01 22:17:58.000  -1640138.6699  -3666873.3339   4939023.6418   1  28   0.0099   0.0099   0.0100   0.0000   0.0000   0.0000   0.00    0.0
2020/01/01 22:17:59.000  -1640138.6704  -3666873.3350   4939023.6434   1  28   0.0099   0.0099   0.0100   0.0000   0.0000   0.0000   0.00    0.0
2020/01/01 22:18:00.000  -1640138.6714  -3666873.3373   4939023.6465   1  28   0.0099   0.0099   0.0100   0.0000   0.0000   0.0000   0.00    0.0
2020/01/01 22:18:01.000  -1640138.6704  -3666873.3350   4939023.6434   1  28   0.0099   0.0099   0.0100   0.0000   0.0000   0.0000   0.00    0.0
2020/01/01 22:18:02.000  -1640138.6697  -3666873.3333   4939023.6410   1  28   0.0099   0.0099   0.0100   0.0000   0.0000   0.0000   0.00    0.0
2020/01/01 22:18:03.000  -1640138.6702  -3666873.3345   4939023.6426   1  28   0.0099   0.0099   0.0100   0.0000   0.0000   0.0000   0.00    0.0
2020/01/01 22:18:04.000  -1640138.6709  -3666873.3362   4939023.6449   1  28   0.0099   0.0099   0.0100   0.0000   0.0000   0.0000   0.00    0.0
2020/01/01 22:18:05.000  -1640138.6699  -3666873.3339   4939023.6418   1  29   0.0099   0.0099   0.0100   0.0000   0.0000   0.0000   0.00    0.0
2020/01/01 22:18:06.000  -1640138.6694  -3666873.3327   4939023.6403   1  29   0.0099   0.0099   0.0100   0.0000   0.0000   0.0000   0.00    0.0
2020/01/01 22:18:07.000  -1640138.6689  -3666873.3316   4939023.6387   1  29   0.0099   0.0099   0.0100   0.0000   0.0000   0.0000   0.00    0.0
2020/01/01 22:18:08.000  -1640138.6691  -3666873.3322   4939023.6395   1  29   0.0099   0.0099   0.0100   0.0000   0.0000   0.0000   0.00    0.0
2020/01/01 22:18:09.000  -1640138.6694  -3666873.3327   4939023.6403   1  29   0.0099   0.0099   0.0100   0.0000   0.0000   0.0000   0.00    0.0
2020/01/01 22:18:10.000  -1640138.6704  -3666873.3350   4939023.6434   1  29   0.0099   0.0099   0.0100   0.0000   0.0000   0.0000   0.00    0.0
2020/01/01 22:18:11.000  -1640138.6702  -3666873.3345   4939023.6426   1  29   0.0099   0.0099   0.0100   0.0000   0.0000   0.0000   0.00    0.0
2020/01/01 22:18:12.000  -1640138.6707  -3666873.3356   4939023.6442   1  29   0.0099   0.0099   0.0100   0.0000   0.0000   0.0000   0.00    0.0
2020/01/01 22:18:13.000  -1640138.6694  -3666873.3327   4939023.6403   1  29   0.0099   0.0099   0.0100   0.0000   0.0000   0.0000   0.00    0.0
2020/01/01 22:18:14.000  -1640138.6691  -3666873.3322   4939023.6395   1  29   0.0099   0.0099   0.0100   0.0000   0.0000   0.0000   0.00    0.0
2020/01/01 22:18:15.000  -1640138.6694  -3666873.3327   4939023.6403   1  29   0.0099   0.0099   0.0100   0.0000   0.0000   0.0000   0.00    0.0
2020/01/01 22:18:16.000  -1640138.6694  -3666873.3327   4939023.6403   1  29   0.0099   0.0099   0.0100   0.0000   0.0000   0.0000   0.00    0.0
2020/01/01 22:18:17.000  -1640138.6694  -3666873.3327   4939023.6403   1  29   0.0099   0.0099   0.0100   0.0000   0.0000   0.0000   0.00    0.0
2020/01/01 22:18:18.000  -1640138.6709  -3666873.3362   4939023.6449   1  29   0.0099   0.0099   0.0100   0.0000   0.0000   0.0000   0.00    0.0
2020/01/01 22:18:19.000  -1640138.6712  -3666873.3368   4939023.6457   1  29   0.0099   0.0099   0.0100   0.0000   0.0000   0.0000   0.00    0.0
2020/01/01 22:18:20.000  -1640138.6714  -3666873.3373   4939023.6465   1  29   0.0099   0.0099   0.0100   0.0000   0.0000   0.0000   0.00    0.0
2020/01/01 22:18:21.000  -1640138.6717  -3666873.3379   4939023.6473   1  29   0.0099   0.0099   0.0100   0.0000   0.0000   0.0000   0.00    0.0
2020/01/01 22:18:22.000  -1640138.6714  -3666873.3373   4939023.6465   1  29   0.0099   0.0099   0.0100   0.0000   0.0000   0.0000   0.00    0.0
2020/01/01 22:18:23.000  -1640138.6707  -3666873.3356   4939023.6442   1  29   0.0099   0.0099   0.0100   0.0000   0.0000   0.0000   0.00    0.0
2020/01/01 22:18:24.000  -1640138.6714  -3666873.3373   4939023.6465   1  29   0.0099   0.0099   0.0100   0.0000   0.0000   0.0000   0.00    0.0
2020/01/01 22:18:25.000  -1640138.6720  -3666873.3385   4939023.6480   1  29   0.0099   0.0099   0.0100   0.0000   0.0000   0.0000   0.00    0.0
2020/01/01 22:18:26.000  -1640138.6720  -3666873.3385   4939023.6480   1  29   0.0099   0.0099   0.0100   0.0000   0.0000   0.0000   0.00    0.0
2020/01/01 22:18:27.000  -1640138.6709  -3666873.3362   4939023.6449   1  29   0.0099   0.0099   0.0100   0.0000   0.0000   0.0000   0.00    0.0
2020/01/01 22:18:28.000  -1640138.6697  -3666873.3333   4939023.6410   1  29   0.0099   0.0099   0.0100   0.0000   0.0000   0.0000   0.00    0.0
2020/01/01 22:18:29.000  -1640138.6694  -3666873.3327   4939023.6403   1  29   0.0099   0.0099   0.0100   0.0000   0.0000   0.0000   0.00    0.0
2020/01/01 22:18:30.000  -1640138.6699  -3666873.3339   4939023.6418   1  29   0.0099   0.0099   0.0100   0.0000   0.0000   0.0000   0.00    0.0
2020/01/01 22:18:31.000  -1640138.6712  -3666873.3368   4939023.6457   1  29   0.0099   0.0099   0.0100   0.0000   0.0000   0.0000   0.00    0.0
2020/01/01 22:18:32.000  -1640138.6720  -3666873.3385   4939023.6480   1  29   0.0099   0.0099   0.0100   0.0000   0.0000   0.0000   0.00    0.0
2020/01/01 22:18:33.000  -1640138.6717  -3666873.3379   4939023.6473   1  29   0.0099   0.0099   0.0100   0.0000   0.0000   0.0000   0.00    0.0
2020/01/01 22:18:34.000  -1640138.6707  -3666873.3356   4939023.6442   1  29   0.0099   0.0099   0.0100   0.0000   0.0000   0.0000   0.00    0.0
2020/01/01 22:18:35.000  -1640138.6707  -3666873.3356   4939023.6442   1  29   0.0099   0.0099   0.0100   0.0000   0.0000   0.0000   0.00    0.0
2020/01/01 22:18:36.000  -1640138.6697  -3666873.3333   4939023.6410   1  29   0.0099   0.0099   0.0100   0.0000   0.0000   0.0000   0.00    0.0
2020/01/01 22:18:37.000  -1640138.6707  -3666873.3356   4939023.6442   1  29   0.0099   0.0099   0.0100   0.0000   0.0000   0.0000   0.00    0.0
2020/01/01 22:18:38.000  -1640138.6707  -3666873.3356   4939023.6442   1  29   0.0099   0.0099   0.0100   0.0000   0.0000   0.0000   0.00    0.0
2020/01/01 22:18:39.000  -1640138.6709  -3666873.3362   4939023.6449   1  29   0.0099   0.0099   0.0100   0.0000   0.0000   0.0000   0.00    0.0
2020/01/01 22:18:40.000  -1640138.6717  -3666873.3379   4939023.6473   1  29   0.0099   0.0099   0.0100   0.0000   0.0000   0.0000   0.00    0.0
2020/01/01 22:18:41.000  -1640138.6714  -3666873.3373   4939023.6465   1  29   0.0099   0.0099   0.0100   0.0000   0.0000   0.0000   0.00    0.0
2020/01/01 22:18:42.000  -1640138.6707  -3666873.3356   4939023.6442   1  29   0.0099   0.0099   0.0100   0.0000   0.0000   0.0000   0.00    0.0
2020/01/01 22:18:43.000  -1640138.6694  -3666873.3327   4939023.6403   1  29   0.0099   0.0099   0.0100   0.0000   0.0000   0.0000   0.00    0.0
2020/01/01 22:18:44.000  -1640138.6691  -3666873.3322   4939023.6395   1  29   0.0099   0.0099   0.0100   0.0000   0.0000   0.0000   0.00    0.0
2020/01/01 22:18:45.000  -1640138.6691  -3666873.3322   4939023.6395   1  29   0.0099   0.0099   0.0100   0.0000   0.0000   0.0000   0.00    0.0
2020/01/01 22:18:46.000  -1640138.6704  -3666873.3350   4939023.6434   1  29   0.0099   0.0099   0.0100   0.0000   0.0000   0.0000   0.00    0.0
2020/01/01 22:18:47.000  -1640138.6709  -3666873.3362   4939023.6449   1  29   0.0099   0.0099   0.0100   0.0000   0.0000   0.0000   0.00    0.0
2020/01/01 22:18:48.000  -1640138.6704  -3666873.3350   4939023.6434   1  29   0.0099   0.0099   0.0100   0.0000   0.0000   0.0000   0.00    0.0
2020/01/01 22:18:49.000  -1640138.6699  -3666873.3339   4939023.6418   1  29   0.0099   0.0099   0.0100   0.0000   0.0000   0.0000   0.00    0.0
2020/01/01 22:18:50.000  -1640138.6699  -3666873.3339   4939023.6418   1  29   0.0099   0.0099   0.0100   0.0000   0.0000   0.0000   0.00    0.0
2020/01/01 22:18:51.000  -1640138.6707  -3666873.3356   4939023.6442   1  29   0.0099   0.0099   0.0100   0.0000   0.0000   0.0000   0.00    0.0
2020/01/01 22:18:52.000  -1640138.6702  -3666873.3345   4939023.6426   1  29   0.0099   0.0099   0.0100   0.0000   0.0000   0.0000   0.00    0.0
2020/01/01 22:18:53.000  -1640138.6699  -3666873.3339   4939023.6418   1  29   0.0099   0.0099   0.0100   0.0000   0.0000   0.0000   0.00    0.0
2020/01/01 22:18:54.000  -1640138.6694  -3666873.3327   4939023.6403   1  29   0.0099   0.0099   0.0100   0.0000   0.0000   0.0000   0.00    0.0
2020/01/01 22:18:55.000  -1640138.6697  -3666873.3333   4939023.6410   1  29   0.0099   0.0099   0.0100   0.0000   0.0000   0.0000   0.00    0.0
2020/01/01 22:18:56.000  -1640138.6694  -3666873.3327   4939023.6403   1  29   0.0099   0.0099   0.0100   0.0000   0.0000   0.0000   0.00    0.0
2020/01/01 22:18:57.000  -1640138.6704  -3666873.3350   4939023.6434   1  29   0.0099   0.0099   0.0100   0.0000   0.0000   0.0000   0.00    0.0
2020/01/01 22:18:58.000  -1640138.6704  -3666873.3350   4939023.6434   1  29   0.0099   0.0099   0.0100   0.0000   0.0000   0.0000   0.00    0.0
2020/01/01 22:18:59.000  -1640138.6712  -3666873.3368   4939023.6457   1  29   0.0099   0.0099   0.0100   0.0000   0.0000   0.0000   0.00    0.0
2020/01/01 22:19:00.000  -1640138.6707  -3666873.3356   4939023.6442   1  29   0.0099   0.0099   0.0100   0.0000   0.0000   0.0000   0.00    0.0
2020/01/01 22:19:01.000  -1640138.6702  -3666873.3345   4939023.6426   1  29   0.0099   0.0099   0.0100   0.0000   0.0000   0.0000   0.00    0.0
2020/01/01 22:19:02.000  -1640138.6697  -3666873.3333   4939023.6410   1  29   0.0099   0.0099   0.0100   0.0000   0.0000   0.0000   0.00    0.0
2020/01/01 22:19:03.000  -1640138.6702  -3666873.3345   4939023.6426   1  29   0.0099   0.0099   0.0100   0.0000   0.0000   0.0000   0.00    0.0
2020/01/01 22:19:04.000  -1640138.6704  -3666873.3350   4939023.6434   1  29   0.0099   0.0099   0.0100   0.0000   0.0000   0.0000   0.00    0.0
2020/01/01 22:19:05.000  -1640138.6709  -3666873.3362   4939023.6449   1  29   0.0099   0.0099   0.0100   0.0000   0.0000   0.0000   0.00    0.0
2020/01/01 22:19:06.000  -1640138.6704  -3666873.3350   4939023.6434   1  29   0.0099   0.0099   0.0100   0.0000   0.0000   0.0000   0.00    0.0
2020/01/01 22:19:07.000  -1640138.6704  -3666873.3350   4939023.6434   1  29   0.0099   0.0099   0.0100   0.0000   0.0000   0.0000   0.00    0.0
2020/01/01 22:19:08.000  -1640138.6712  -3666873.3368   4939023.6457   1  29   0.0099   0.0099   0.0100   0.0000   0.0000   0.0000   0.00    0.0
2020/01/01 22:19:09.000  -1640138.6717  -3666873.3379   4939023.6473   1  29   0.0099   0.0099   0.0100   0.0000   0.0000   0.0000   0.00    0.0
2020/01/01 22:19:10.000  -1640138.6717  -3666873.3379   4939023.6473   1  29   0.0099   0.0099   0.0100   0.0000   0.0000   0.0000   0.00    0.0
2020/01/01 22:19:11.000  -1640138.6709  -3666873.3362   4939023.6449   1  29   0.0099   0.0099   0.0100   0.0000   0.0000   0.0000   0.00    0.0
2020/01/01 22:19:12.000  -1640138.6686  -3666873.3310   4939023.6379   1  29   0.0099   0.0099   0.0100   0.0000   0.0000   0.0000   0.00    0.0
2020/01/01 22:19:13.000  -1640138.6679  -3666873.3293   4939023.6356   1  29   0.0099   0.0099   0.0100   0.0000   0.0000   0.0000   0.00    0.0
2020/01/01 22:19:14.000  -1640138.6666  -3666873.3264   4939023.6317   1  29   0.0099   0.0099   0.0100   0.0000   0.0000   0.0000   0.00    0.0
2020/01/01 22:19:15.000  -1640138.6681  -3666873.3299   4939023.6364   1  29   0.0099   0.0099   0.0100   0.0000   0.0000   0.0000   0.00    0.0
2020/01/01 22:19:16.000  -1640138.6694  -3666873.3327   4939023.6403   1  29   0.0099   0.0099   0.0100   0.0000   0.0000   0.0000   0.00    0.0
2020/01/01 22:19:17.000  -1640138.6699  -3666873.3339   4939023.6418   1  29   0.0099   0.0099   0.0100   0.0000   0.0000   0.0000   0.00    0.0
2020/01/01 22:19:18.000  -1640138.6707  -3666873.3356   4939023.6442   1  29   0.0099   0.0099   0.0100   0.0000   0.0000   0.0000   0.00    0.0
2020/01/01 22:19:19.000  -1640138.6722  -3666873.3391   4939023.6488   1  29   0.0099   0.0099   0.0100   0.0000   0.0000   0.0000   0.00    0.0
2020/01/01 22:19:20.000  -1640138.6712  -3666873.3368   4939023.6457   1  29   0.0099   0.0099   0.0100   0.0000   0.0000   0.0000   0.00    0.0
2020/01/01 22:19:21.000  -1640138.6702  -3666873.3345   4939023.6426   1  29   0.0099   0.0099   0.0100   0.0000   0.0000   0.0000   0.00    0.0
2020/01/01 22:19:22.000  -1640138.6697  -3666873.3333   4939023.6410   1  29   0.0099   0.0099   0.0100   0.0000   0.0000   0.0000   0.00    0.0
2020/01/01 22:19:23.000  -1640138.6694  -3666873.3327   4939023.6403   1  29   0.0099   0.0099   0.0100   0.0000   0.0000   0.0000   0.00    0.0
2020/01/01 22:19:24.000  -1640138.6699  -3666873.3339   4939023.6418   1  29   0.0099   0.0099   0.0100   0.0000   0.0000   0.0000   0.00    0.0
2020/01/01 22:19:25.000  -1640138.6691  -3666873.3322   4939023.6395   1  29   0.0099   0.0099   0.0100   0.0000   0.0000   0.0000   0.00    0.0
2020/01/01 22:19:26.000  -1640138.6702  -3666873.3345   4939023.6426   1  29   0.0099   0.0099   0.0100   0.0000   0.0000   0.0000   0.00    0.0
2020/01/01 22:19:27.000  -1640138.6702  -3666873.3345   4939023.6426   1  29   0.0099   0.0099   0.0100   0.0000   0.0000   0.0000   0.00    0.0
2020/01/01 22:19:28.000  -1640138.6714  -3666873.3373   4939023.6465   1  29   0.0099   0.0099   0.0100   0.0000   0.0000   0.0000   0.00    0.0
2020/01/01 22:19:29.000  -1640138.6722  -3666873.3391   4939023.6488   1  29   0.0099   0.0099   0.0100   0.0000   0.0000   0.0000   0.00    0.0
2020/01/01 22:19:30.000  -1640138.6707  -3666873.3356   4939023.6442   1  29   0.0099   0.0099   0.0100   0.0000   0.0000   0.0000   0.00    0.0
2020/01/01 22:19:31.000  -1640138.6702  -3666873.3345   4939023.6426   1  29   0.0099   0.0099   0.0100   0.0000   0.0000   0.0000   0.00    0.0
2020/01/01 22:19:32.000  -1640138.6697  -3666873.3333   4939023.6410   1  29   0.0099   0.0099   0.0100   0.0000   0.0000   0.0000   0.00    0.0
2020/01/01 22:19:33.000  -1640138.6699  -3666873.3339   4939023.6418   1  29   0.0099   0.0099   0.0100   0.0000   0.0000   0.0000   0.00    0.0
2020/01/01 22:19:34.000  -1640138.6702  -3666873.3345   4939023.6426   1  29   0.0099   0.0099   0.0100   0.0000   0.0000   0.0000   0.00    0.0
2020/01/01 22:19:35.000  -1640138.6707  -3666873.3356   4939023.6442   1  29   0.0099   0.0099   0.0100   0.0000   0.0000   0.0000   0.00    0.0
2020/01/01 22:19:36.000  -1640138.6709  -3666873.3362   4939023.6449   1  29   0.0099   0.0099   0.0100   0.0000   0.0000   0.0000   0.00    0.0
2020/01/01 22:19:37.000  -1640138.6707  -3666873.3356   4939023.6442   1  29   0.0099   0.0099   0.0100   0.0000   0.0000   0.0000   0.00    0.0
2020/01/01 22:19:38.000  -1640138.6704  -3666873.3350   4939023.6434   1  29   0.0099   0.0099   0.0100   0.0000   0.0000   0.0000   0.00    0.0
2020/01/01 22:19:39.000  -1640138.6704  -3666873.3350   4939023.6434   1  29   0.0099   0.0099   0.0100   0.0000   0.0000   0.0000   0.00    0.0
2020/01/01 22:19:40.000  -1640138.6709  -3666873.3362   4939023.6449   1  29   0.0099   0.0099   0.0100   0.0000   0.0000   0.0000   0.00    0.0
2020/01/01 22:19:41.000  -1640138.6712  -3666873.3368   4939023.6457   1  29   0.0099   0.0099   0.0100   0.0000   0.0000   0.0000   0.00    0.0
2020/01/01 22:19:42.000  -1640138.6707  -3666873.3356   4939023.6442   1  29   0.0099   0.0099   0.0100   0.0000   0.0000   0.0000   0.00    0.0
2020/01/01 22:19:43.000  -1640138.6702  -3666873.3345   4939023.6426   1  29   0.0099   0.0099   0.0100   0.0000   0.0000   0.0000   0.00    0.0
2020/01/01 22:19:44.000  -1640138.6707  -3666873.3356   4939023.6442   1  29   0.0099   0.0099   0.0100   0.0000   0.0000   0.0000   0.00    0.0
2020/01/01 22:19:45.000  -1640138.6704  -3666873.3350   4939023.6434   1  29   0.0099   0.0099   0.0100   0.0000   0.0000   0.0000   0.00    0.0
2020/01/01 22:19:46.000  -1640138.6707  -3666873.3356   4939023.6442   1  29   0.0099   0.0099   0.0100   0.0000   0.0000   0.0000   0.00    0.0
2020/01/01 22:19:47.000  -1640138.6699  -3666873.3339   4939023.6418   1  29   0.0099   0.0099   0.0100   0.0000   0.0000   0.0000   0.00    0.0
2020/01/01 22:19:48.000  -1640138.6704  -3666873.3350   4939023.6434   1  29   0.0099   0.0099   0.0100   0.0000   0.0000   0.0000   0.00    0.0
2020/01/01 22:19:49.000  -1640138.6691  -3666873.3322   4939023.6395   1  29   0.0099   0.0099   0.0100   0.0000   0.0000   0.0000   0.00    0.0
2020/01/01 22:19:50.000  -1640138.6702  -3666873.3345   4939023.6426   1  29   0.0099   0.0099   0.0100   0.0000   0.0000   0.0000   0.00    0.0
2020/01/01 22:19:51.000  -1640138.6694  -3666873.3327   4939023.6403   1  29   0.0099   0.0099   0.0100   0.0000   0.0000   0.0000   0.00    0.0
2020/01/01 22:19:52.000  -1640138.6704  -3666873.3350   4939023.6434   1  29   0.0099   0.0099   0.0100   0.0000   0.0000   0.0000   0.00    0.0
2020/01/01 22:19:53.000  -1640138.6709  -3666873.3362   4939023.6449   1  29   0.0099   0.0099   0.0100   0.0000   0.0000   0.0000   0.00    0.0
2020/01/01 22:19:54.000  -1640138.6712  -3666873.3368   4939023.6457   1  29   0.0099   0.0099   0.0100   0.0000   0.0000   0.0000   0.00    0.0
2020/01/01 22:19:55.000  -1640138.6709  -3666873.3362   4939023.6449   1  29   0.0099   0.0099   0.0100   0.0000   0.0000   0.0000   0.00    0.0
2020/01/01 22:19:56.000  -1640138.6702  -3666873.3345   4939023.6426   1  29   0.0099   0.0099   0.0100   0.0000   0.0000   0.0000   0.00    0.0
2020/01/01 22:19:57.000  -1640138.6694  -3666873.3327   4939023.6403   1  29   0.0099   0.0099   0.0100   0.0000   0.0000   0.0000   0.00    0.0
2020/01/01 22:19:58.000  -1640138.6699  -3666873.3339   4939023.6418   1  29   0.0099   0.0099   0.0100   0.0000   0.0000   0.0000   0.00    0.0
2020/01/01 22:19:59.000  -1640138.6704  -3666873.3350   4939023.6434   1  29   0.0099   0.0099   0.0100   0.0000   0.0000   0.0000   0.00    0.0
2020/01/01 22:20:00.000  -1640138.6720  -3666873.3385   4939023.6480   1  29   0.0099   0.0099   0.0100   0.0000   0.0000   0.0000   0.00    0.0
2020/01/01 22:20:01.000  -1640138.6722  -3666873.3391   4939023.6488   1  29   0.0099   0.0099   0.0100   0.0000   0.0000   0.0000   0.00    0.0
2020/01/01 22:20:02.000  -1640138.6722  -3666873.3391   4939023.6488   1  29   0.0099   0.0099   0.0100   0.0000   0.0000   0.0000   0.00    0.0
2020/01/01 22:20:03.000  -1640138.6712  -3666873.3368   4939023.6457   1  29   0.0099   0.0099   0.0100   0.0000   0.0000   0.0000   0.00    0.0
2020/01/01 22:20:04.000  -1640138.6714  -3666873.3373   4939023.6465   1  29   0.0099   0.0099   0.0100   0.0000   0.0000   0.0000   0.00    0.0
2020/01/01 22:20:05.000  -1640138.6694  -3666873.3327   4939023.6403   1  29   0.0099   0.0099   0.0100   0.0000   0.0000   0.0000   0.00    0.0
2020/01/01 22:20:06.000  -1640138.6709  -3666873.3362   4939023.6449   1  29   0.0099   0.0099   0.0100   0.0000   0.0000   0.0000   0.00    0.0
2020/01/01 22:20:07.000  -1640138.6709  -3666873.3362   4939023.6449   1  29   0.0099   0.0099   0.0100   0.0000   0.0000   0.0000   0.00    0.0
2020/01/01 22:20:08.000  -1640138.6722  -3666873.3391   4939023.6488   1  29   0.0099   0.0099   0.0100   0.0000   0.0000   0.0000   0.00    0.0
2020/01/01 22:20:09.000  -1640138.6722  -3666873.3391   4939023.6488   1  29   0.0099   0.0099   0.0100   0.0000   0.0000   0.0000   0.00    0.0
2020/01/01 22:20:10.000  -1640138.6717  -3666873.3379   4939023.6473   1  29   0.0099   0.0099   0.0100   0.0000   0.0000   0.0000   0.00    0.0
2020/01/01 22:20:11.000  -1640138.6707  -3666873.3356   4939023.6442   1  29   0.0099   0.0099   0.0100   0.0000   0.0000   0.0000   0.00    0.0
2020/01/01 22:20:12.000  -1640138.6691  -3666873.3322   4939023.6395   1  29   0.0099   0.0099   0.0100   0.0000   0.0000   0.0000   0.00    0.0
2020/01/01 22:20:13.000  -1640138.6681  -3666873.3299   4939023.6364   1  29   0.0099   0.0099   0.0100   0.0000   0.0000   0.0000   0.00    0.0
2020/01/01 22:20:14.000  -1640138.6635  -3666873.3368   4939023.6418   1  29   0.0099   0.0099   0.0100   0.0000   0.0000   0.0000   0.00    0.0
2020/01/01 22:20:15.000  -1640138.6704  -3666873.3350   4939023.6434   1  29   0.0099   0.0099   0.0100   0.0000   0.0000   0.0000   0.00    0.0
2020/01/01 22:20:16.000  -1640138.6702  -3666873.3345   4939023.6426   1  29   0.0099   0.0099   0.0100   0.0000   0.0000   0.0000   0.00    0.0
2020/01/01 22:20:17.000  -1640138.6717  -3666873.3379   4939023.6473   1  29   0.0099   0.0099   0.0100   0.0000   0.0000   0.0000   0.00    0.0
2020/01/01 22:20:18.000  -1640138.6717  -3666873.3379   4939023.6473   1  29   0.0099   0.0099   0.0100   0.0000   0.0000   0.0000   0.00    0.0
2020/01/01 22:20:19.000  -1640138.6725  -3666873.3396   4939023.6496   1  29   0.0099   0.0099   0.0100   0.0000   0.0000   0.0000   0.00    0.0
2020/01/01 22:20:20.000  -1640138.6714  -3666873.3373   4939023.6465   1  29   0.0099   0.0099   0.0100   0.0000   0.0000   0.0000   0.00    0.0
2020/01/01 22:20:21.000  -1640138.6712  -3666873.3368   4939023.6457   1  29   0.0099   0.0099   0.0100   0.0000   0.0000   0.0000   0.00    0.0
2020/01/01 22:20:22.000  -1640138.6712  -3666873.3368   4939023.6457   1  29   0.0099   0.0099   0.0100   0.0000   0.0000   0.0000   0.00    0.0
2020/01/01 22:20:23.000  -1640138.6725  -3666873.3396   4939023.6496   1  29   0.0099   0.0099   0.0100   0.0000   0.0000   0.0000   0.00    0.0
2020/01/01 22:20:24.000  -1640138.6658  -3666873.3419   4939023.6488   1  29   0.0099   0.0099   0.0100   0.0000   0.0000   0.0000   0.00    0.0
2020/01/01 22:20:25.000  -1640138.6720  -3666873.3385   4939023.6480   1  29   0.0099   0.0099   0.0100   0.0000   0.0000   0.0000   0.00    0.0
2020/01/01 22:20:26.000  -1640138.6720  -3666873.3385   4939023.6480   1  29   0.0099   0.0099   0.0100   0.0000   0.0000   0.0000   0.00    0.0
2020/01/01 22:20:27.000  -1640138.6712  -3666873.3368   4939023.6457   1  29   0.0099   0.0099   0.0100   0.0000   0.0000   0.0000   0.00    0.0
2020/01/01 22:20:28.000  -1640138.6650  -3666873.3402   4939023.6465   1  29   0.0099   0.0099   0.0100   0.0000   0.0000   0.0000   0.00    0.0
2020/01/01 22:20:29.000  -1640138.6645  -3666873.3391   4939023.6449   1  29   0.0099   0.0099   0.0100   0.0000   0.0000   0.0000   0.00    0.0
2020/01/01 22:20:30.000  -1640138.6704  -3666873.3350   4939023.6434   1  29   0.0099   0.0099   0.0100   0.0000   0.0000   0.0000   0.00    0.0
2020/01/01 22:20:31.000  -1640138.6702  -3666873.3345   4939023.6426   1  29   0.0099   0.0099   0.0100   0.0000   0.0000   0.0000   0.00    0.0
2020/01/01 22:20:32.000  -1640138.6699  -3666873.3339   4939023.6418   1  29   0.0099   0.0099   0.0100   0.0000   0.0000   0.0000   0.00    0.0
2020/01/01 22:20:33.000  -1640138.6702  -3666873.3345   4939023.6426   1  29   0.0099   0.0099   0.0100   0.0000   0.0000   0.0000   0.00    0.0
2020/01/01 22:20:34.000  -1640138.6653  -3666873.3408   4939023.6473   1  29   0.0099   0.0099   0.0100   0.0000   0.0000   0.0000   0.00    0.0
2020/01/01 22:20:35.000  -1640138.6717  -3666873.3379   4939023.6473   1  29   0.0099   0.0099   0.0100   0.0000   0.0000   0.0000   0.00    0.0
2020/01/01 22:20:36.000  -1640138.6722  -3666873.3391   4939023.6488   1  29   0.0099   0.0099   0.0100   0.0000   0.0000   0.0000   0.00    0.0
2020/01/01 22:20:37.000  -1640138.6717  -3666873.3379   4939023.6473   1  29   0.0099   0.0099   0.0100   0.0000   0.0000   0.0000   0.00    0.0
2020/01/01 22:20:38.000  -1640138.6704  -3666873.3350   4939023.6434   1  29   0.0099   0.0099   0.0100   0.0000   0.0000   0.0000   0.00    0.0
2020/01/01 22:20:39.000  -1640138.6717  -3666873.3379   4939023.6473   1  29   0.0099   0.0099   0.0100   0.0000   0.0000   0.0000   0.00    0.0
2020/01/01 22:20:40.000  -1640138.6661  -3666873.3425   4939023.6496   1  29   0.0099   0.0099   0.0100   0.0000   0.0000   0.0000   0.00    0.0
2020/01/01 22:20:41.000  -1640138.6730  -3666873.3408   4939023.6512   1  29   0.0099   0.0099   0.0100   0.0000   0.0000   0.0000   0.00    0.0
2020/01/01 22:20:42.000  -1640138.6717  -3666873.3379   4939023.6473   1  29   0.0099   0.0099   0.0100   0.0000   0.0000   0.0000   0.00    0.0
2020/01/01 22:20:43.000  -1640138.6720  -3666873.3385   4939023.6480   1  29   0.0099   0.0099   0.0100   0.0000   0.0000   0.0000   0.00    0.0
2020/01/01 22:20:44.000  -1640138.6650  -3666873.3402   4939023.6465   1  29   0.0099   0.0099   0.0100   0.0000   0.0000   0.0000   0.00    0.0
2020/01/01 22:20:45.000  -1640138.6702  -3666873.3345   4939023.6426   1  29   0.0099   0.0099   0.0100   0.0000   0.0000   0.0000   0.00    0.0
2020/01/01 22:20:46.000  -1640138.6702  -3666873.3345   4939023.6426   1  29   0.0099   0.0099   0.0100   0.0000   0.0000   0.0000   0.00    0.0
2020/01/01 22:20:47.000  -1640138.6709  -3666873.3362   4939023.6449   1  29   0.0099   0.0099   0.0100   0.0000   0.0000   0.0000   0.00    0.0
2020/01/01 22:20:48.000  -1640138.6712  -3666873.3368   4939023.6457   1  29   0.0099   0.0099   0.0100   0.0000   0.0000   0.0000   0.00    0.0
2020/01/01 22:20:49.000  -1640138.6725  -3666873.3396   4939023.6496   1  29   0.0099   0.0099   0.0100   0.0000   0.0000   0.0000   0.00    0.0
2020/01/01 22:20:50.000  -1640138.6712  -3666873.3368   4939023.6457   1  29   0.0099   0.0099   0.0100   0.0000   0.0000   0.0000   0.00    0.0
2020/01/01 22:20:51.000  -1640138.6720  -3666873.3385   4939023.6480   1  29   0.0099   0.0099   0.0100   0.0000   0.0000   0.0000   0.00    0.0
2020/01/01 22:20:52.000  -1640138.6650  -3666873.3402   4939023.6465   1  29   0.0099   0.0099   0.0100   0.0000   0.0000   0.0000   0.00    0.0
2020/01/01 22:20:53.000  -1640138.6653  -3666873.3408   4939023.6473   1  29   0.0099   0.0099   0.0100   0.0000   0.0000   0.0000   0.00    0.0
2020/01/01 22:20:54.000  -1640138.6712  -3666873.3368   4939023.6457   1  29   0.0099   0.0099   0.0100   0.0000   0.0000   0.0000   0.00    0.0
2020/01/01 22:20:55.000  -1640138.6709  -3666873.3362   4939023.6449   1  29   0.0099   0.0099   0.0100   0.0000   0.0000   0.0000   0.00    0.0
2020/01/01 22:20:56.000  -1640138.6714  -3666873.3373   4939023.6465   1  29   0.0099   0.0099   0.0100   0.0000   0.0000   0.0000   0.00    0.0
2020/01/01 22:20:57.000  -1640138.6722  -3666873.3391   4939023.6488   1  29   0.0099   0.0099   0.0100   0.0000   0.0000   0.0000   0.00    0.0
2020/01/01 22:20:58.000  -1640138.6663  -3666873.3431   4939023.6504   1  29   0.0099   0.0099   0.0100   0.0000   0.0000   0.0000   0.00    0.0
2020/01/01 22:20:59.000  -1640138.6658  -3666873.3419   4939023.6488   1  29   0.0099   0.0099   0.0100   0.0000   0.0000   0.0000   0.00    0.0
2020/01/01 22:21:00.000  -1640138.6712  -3666873.3368   4939023.6457   1  29   0.0099   0.0099   0.0100   0.0000   0.0000   0.0000   0.00    0.0
2020/01/01 22:21:01.000  -1640138.6714  -3666873.3373   4939023.6465   1  29   0.0099   0.0099   0.0100   0.0000   0.0000   0.0000   0.00    0.0
2020/01/01 22:21:02.000  -1640138.6704  -3666873.3350   4939023.6434   1  29   0.0099   0.0099   0.0100   0.0000   0.0000   0.0000   0.00    0.0
2020/01/01 22:21:03.000  -1640138.6699  -3666873.3339   4939023.6418   1  29   0.0099   0.0099   0.0100   0.0000   0.0000   0.0000   0.00    0.0
2020/01/01 22:21:04.000  -1640138.6712  -3666873.3368   4939023.6457   1  29   0.0099   0.0099   0.0100   0.0000   0.0000   0.0000   0.00    0.0
2020/01/01 22:21:05.000  -1640138.6648  -3666873.3396   4939023.6457   1  29   0.0099   0.0099   0.0100   0.0000   0.0000   0.0000   0.00    0.0
2020/01/01 22:21:06.000  -1640138.6712  -3666873.3368   4939023.6457   1  29   0.0099   0.0099   0.0100   0.0000   0.0000   0.0000   0.00    0.0
2020/01/01 22:21:07.000  -1640138.6704  -3666873.3350   4939023.6434   1  29   0.0099   0.0099   0.0100   0.0000   0.0000   0.0000   0.00    0.0
2020/01/01 22:21:08.000  -1640138.6643  -3666873.3385   4939023.6442   1  29   0.0099   0.0099   0.0100   0.0000   0.0000   0.0000   0.00    0.0
2020/01/01 22:21:09.000  -1640138.6707  -3666873.3356   4939023.6442   1  29   0.0099   0.0099   0.0100   0.0000   0.0000   0.0000   0.00    0.0
2020/01/01 22:21:10.000  -1640138.6709  -3666873.3362   4939023.6449   1  29   0.0099   0.0099   0.0100   0.0000   0.0000   0.0000   0.00    0.0
2020/01/01 22:21:11.000  -1640138.6650  -3666873.3402   4939023.6465   1  29   0.0099   0.0099   0.0100   0.0000   0.0000   0.0000   0.00    0.0
2020/01/01 22:21:12.000  -1640138.6712  -3666873.3368   4939023.6457   1  29   0.0099   0.0099   0.0100   0.0000   0.0000   0.0000   0.00    0.0
2020/01/01 22:21:13.000  -1640138.6707  -3666873.3356   4939023.6442   1  29   0.0099   0.0099   0.0100   0.0000   0.0000   0.0000   0.00    0.0
2020/01/01 22:21:14.000  -1640138.6702  -3666873.3345   4939023.6426   1  29   0.0099   0.0099   0.0100   0.0000   0.0000   0.0000   0.00    0.0
2020/01/01 22:21:15.000  -1640138.6714  -3666873.3373   4939023.6465   1  29   0.0099   0.0099   0.0100   0.0000   0.0000   0.0000   0.00    0.0
2020/01/01 22:21:16.000  -1640138.6707  -3666873.3356   4939023.6442   1  29   0.0099   0.0099   0.0100   0.0000   0.0000   0.0000   0.00    0.0
2020/01/01 22:21:17.000  -1640138.6717  -3666873.3379   4939023.6473   1  29   0.0099   0.0099   0.0100   0.0000   0.0000   0.0000   0.00    0.0
2020/01/01 22:21:18.000  -1640138.6717  -3666873.3379   4939023.6473   1  29   0.0099   0.0099   0.0100   0.0000   0.0000   0.0000   0.00    0.0
2020/01/01 22:21:19.000  -1640138.6709  -3666873.3362   4939023.6449   1  29   0.0099   0.0099   0.0100   0.0000   0.0000   0.0000   0.00    0.0
2020/01/01 22:21:20.000  -1640138.6717  -3666873.3379   4939023.6473   1  29   0.0099   0.0099   0.0100   0.0000   0.0000   0.0000   0.00    0.0
2020/01/01 22:21:21.000  -1640138.6714  -3666873.3373   4939023.6465   1  29   0.0099   0.0099   0.0100   0.0000   0.0000   0.0000   0.00    0.0
2020/01/01 22:21:22.000  -1640138.6712  -3666873.3368   4939023.6457   1  29   0.0099   0.0099   0.0100   0.0000   0.0000   0.0000   0.00    0.0
2020/01/01 22:21:23.000  -1640138.6717  -3666873.3379   4939023.6473   1  29   0.0099   0.0099   0.0100   0.0000   0.0000   0.0000   0.00    0.0
2020/01/01 22:21:24.000  -1640138.6707  -3666873.3356   4939023.6442   1  29   0.0099   0.0099   0.0100   0.0000   0.0000   0.0000   0.00    0.0
2020/01/01 22:21:25.000  -1640138.6704  -3666873.3350   4939023.6434   1  29   0.0099   0.0099   0.0100   0.0000   0.0000   0.0000   0.00    0.0
2020/01/01 22:21:26.000  -1640138.6699  -3666873.3339   4939023.6418   1  29   0.0099   0.0099   0.0100   0.0000   0.0000   0.0000   0.00    0.0
2020/01/01 22:21:27.000  -1640138.6714  -3666873.3373   4939023.6465   1  29   0.0099   0.0099   0.0100   0.0000   0.0000   0.0000   0.00    0.0
2020/01/01 22:21:28.000  -1640138.6717  -3666873.3379   4939023.6473   1  29   0.0099   0.0099   0.0100   0.0000   0.0000   0.0000   0.00    0.0
2020/01/01 22:21:29.000  -1640138.6720  -3666873.3385   4939023.6480   1  29   0.0099   0.0099   0.0100   0.0000   0.0000   0.0000   0.00    0.0
2020/01/01 22:21:30.000  -1640138.6722  -3666873.3391   4939023.6488   1  29   0.0099   0.0099   0.0100   0.0000   0.0000   0.0000   0.00    0.0
2020/01/01 22:21:31.000  -1640138.6730  -3666873.3408   4939023.6512   1  29   0.0099   0.0099   0.0100   0.0000   0.0000   0.0000   0.00    0.0
2020/01/01 22:21:32.000  -1640138.6727  -3666873.3402   4939023.6504   1  29   0.0099   0.0099   0.0100   0.0000   0.0000   0.0000   0.00    0.0
2020/01/01 22:21:33.000  -1640138.6720  -3666873.3385   4939023.6480   1  29   0.0099   0.0099   0.0100   0.0000   0.0000   0.0000   0.00    0.0
2020/01/01 22:21:34.000  -1640138.6709  -3666873.3362   4939023.6449   1  29   0.0099   0.0099   0.0100   0.0000   0.0000   0.0000   0.00    0.0
2020/01/01 22:21:35.000  -1640138.6704  -3666873.3350   4939023.6434   1  29   0.0099   0.0099   0.0100   0.0000   0.0000   0.0000   0.00    0.0
2020/01/01 22:21:36.000  -1640138.6699  -3666873.3339   4939023.6418   1  29   0.0099   0.0099   0.0100   0.0000   0.0000   0.0000   0.00    0.0
2020/01/01 22:21:37.000  -1640138.6709  -3666873.3362   4939023.6449   1  29   0.0099   0.0099   0.0100   0.0000   0.0000   0.0000   0.00    0.0
2020/01/01 22:21:38.000  -1640138.6722  -3666873.3391   4939023.6488   1  29   0.0099   0.0099   0.0100   0.0000   0.0000   0.0000   0.00    0.0
2020/01/01 22:21:39.000  -1640138.6730  -3666873.3408   4939023.6512   1  29   0.0099   0.0099   0.0100   0.0000   0.0000   0.0000   0.00    0.0
2020/01/01 22:21:40.000  -1640138.6727  -3666873.3402   4939023.6504   1  29   0.0099   0.0099   0.0100   0.0000   0.0000   0.0000   0.00    0.0
2020/01/01 22:21:41.000  -1640138.6714  -3666873.3373   4939023.6465   1  29   0.0099   0.0099   0.0100   0.0000   0.0000   0.0000   0.00    0.0
2020/01/01 22:21:42.000  -1640138.6697  -3666873.3333   4939023.6410   1  29   0.0099   0.0099   0.0100   0.0000   0.0000   0.0000   0.00    0.0
2020/01/01 22:21:43.000  -1640138.6694  -3666873.3327   4939023.6403   1  29   0.0099   0.0099   0.0100   0.0000   0.0000   0.0000   0.00    0.0
2020/01/01 22:21:44.000  -1640138.6694  -3666873.3327   4939023.6403   1  29   0.0099   0.0099   0.0100   0.0000   0.0000   0.0000   0.00    0.0
2020/01/01 22:21:45.000  -1640138.6697  -3666873.3333   4939023.6410   1  29   0.0099   0.0099   0.0100   0.0000   0.0000   0.0000   0.00    0.0
2020/01/01 22:21:46.000  -1640138.6704  -3666873.3350   4939023.6434   1  29   0.0099   0.0099   0.0100   0.0000   0.0000   0.0000   0.00    0.0
2020/01/01 22:21:47.000  -1640138.6709  -3666873.3362   4939023.6449   1  29   0.0099   0.0099   0.0100   0.0000   0.0000   0.0000   0.00    0.0
2020/01/01 22:21:48.000  -1640138.6643  -3666873.3385   4939023.6442   1  29   0.0099   0.0099   0.0100   0.0000   0.0000   0.0000   0.00    0.0
2020/01/01 22:21:49.000  -1640138.6643  -3666873.3385   4939023.6442   1  29   0.0099   0.0099   0.0100   0.0000   0.0000   0.0000   0.00    0.0
2020/01/01 22:21:50.000  -1640138.6638  -3666873.3373   4939023.6426   1  29   0.0099   0.0099   0.0100   0.0000   0.0000   0.0000   0.00    0.0
2020/01/01 22:21:51.000  -1640138.6633  -3666873.3362   4939023.6410   1  29   0.0099   0.0099   0.0100   0.0000   0.0000   0.0000   0.00    0.0
2020/01/01 22:21:52.000  -1640138.6630  -3666873.3356   4939023.6403   1  29   0.0099   0.0099   0.0100   0.0000   0.0000   0.0000   0.00    0.0
2020/01/01 22:21:53.000  -1640138.6633  -3666873.3362   4939023.6410   1  29   0.0099   0.0099   0.0100   0.0000   0.0000   0.0000   0.00    0.0
2020/01/01 22:21:54.000  -1640138.6625  -3666873.3345   4939023.6387   1  29   0.0099   0.0099   0.0100   0.0000   0.0000   0.0000   0.00    0.0
2020/01/01 22:21:55.000  -1640138.6633  -3666873.3362   4939023.6410   1  29   0.0099   0.0099   0.0100   0.0000   0.0000   0.0000   0.00    0.0
2020/01/01 22:21:56.000  -1640138.6648  -3666873.3396   4939023.6457   1  29   0.0099   0.0099   0.0100   0.0000   0.0000   0.0000   0.00    0.0
2020/01/01 22:21:57.000  -1640138.6717  -3666873.3379   4939023.6473   1  29   0.0099   0.0099   0.0100   0.0000   0.0000   0.0000   0.00    0.0
2020/01/01 22:21:58.000  -1640138.6643  -3666873.3385   4939023.6442   1  29   0.0099   0.0099   0.0100   0.0000   0.0000   0.0000   0.00    0.0
2020/01/01 22:21:59.000  -1640138.6699  -3666873.3339   4939023.6418   1  29   0.0099   0.0099   0.0100   0.0000   0.0000   0.0000   0.00    0.0
2020/01/01 22:22:00.000  -1640138.6697  -3666873.3333   4939023.6410   1  29   0.0099   0.0099   0.0100   0.0000   0.0000   0.0000   0.00    0.0
2020/01/01 22:22:01.000  -1640138.6702  -3666873.3345   4939023.6426   1  29   0.0099   0.0099   0.0100   0.0000   0.0000   0.0000   0.00    0.0
2020/01/01 22:22:02.000  -1640138.6627  -3666873.3350   4939023.6395   1  29   0.0099   0.0099   0.0100   0.0000   0.0000   0.0000   0.00    0.0
2020/01/01 22:22:03.000  -1640138.6638  -3666873.3373   4939023.6426   1  29   0.0099   0.0099   0.0100   0.0000   0.0000   0.0000   0.00    0.0
2020/01/01 22:22:04.000  -1640138.6645  -3666873.3391   4939023.6449   1  29   0.0099   0.0099   0.0100   0.0000   0.0000   0.0000   0.00    0.0
2020/01/01 22:22:05.000  -1640138.6650  -3666873.3402   4939023.6465   1  29   0.0099   0.0099   0.0100   0.0000   0.0000   0.0000   0.00    0.0
2020/01/01 22:22:06.000  -1640138.6648  -3666873.3396   4939023.6457   1  29   0.0099   0.0099   0.0100   0.0000   0.0000   0.0000   0.00    0.0
2020/01/01 22:22:07.000  -1640138.6697  -3666873.3333   4939023.6410   1  29   0.0099   0.0099   0.0100   0.0000   0.0000   0.0000   0.00    0.0
2020/01/01 22:22:08.000  -1640138.6704  -3666873.3350   4939023.6434   1  29   0.0099   0.0099   0.0100   0.0000   0.0000   0.0000   0.00    0.0
2020/01/01 22:22:09.000  -1640138.6694  -3666873.3327   4939023.6403   1  29   0.0099   0.0099   0.0100   0.0000   0.0000   0.0000   0.00    0.0
2020/01/01 22:22:10.000  -1640138.6633  -3666873.3362   4939023.6410   1  29   0.0099   0.0099   0.0100   0.0000   0.0000   0.0000   0.00    0.0
2020/01/01 22:22:11.000  -1640138.6640  -3666873.3379   4939023.6434   1  29   0.0099   0.0099   0.0100   0.0000   0.0000   0.0000   0.00    0.0
2020/01/01 22:22:12.000  -1640138.6645  -3666873.3391   4939023.6449   1  29   0.0099   0.0099   0.0100   0.0000   0.0000   0.0000   0.00    0.0
2020/01/01 22:22:13.000  -1640138.6709  -3666873.3362   4939023.6449   1  29   0.0099   0.0099   0.0100   0.0000   0.0000   0.0000   0.00    0.0
2020/01/01 22:22:14.000  -1640138.6640  -3666873.3379   4939023.6434   1  29   0.0099   0.0099   0.0100   0.0000   0.0000   0.0000   0.00    0.0
2020/01/01 22:22:15.000  -1640138.6645  -3666873.3391   4939023.6449   1  29   0.0099   0.0099   0.0100   0.0000   0.0000   0.0000   0.00    0.0
2020/01/01 22:22:16.000  -1640138.6640  -3666873.3379   4939023.6434   1  29   0.0099   0.0099   0.0100   0.0000   0.0000   0.0000   0.00    0.0
2020/01/01 22:22:17.000  -1640138.6633  -3666873.3362   4939023.6410   1  29   0.0099   0.0099   0.0100   0.0000   0.0000   0.0000   0.00    0.0
2020/01/01 22:22:18.000  -1640138.6707  -3666873.3356   4939023.6442   1  29   0.0099   0.0099   0.0100   0.0000   0.0000   0.0000   0.00    0.0
2020/01/01 22:22:19.000  -1640138.6694  -3666873.3327   4939023.6403   1  29   0.0099   0.0099   0.0100   0.0000   0.0000   0.0000   0.00    0.0
2020/01/01 22:22:20.000  -1640138.6638  -3666873.3373   4939023.6426   1  29   0.0099   0.0099   0.0100   0.0000   0.0000   0.0000   0.00    0.0
2020/01/01 22:22:21.000  -1640138.6630  -3666873.3356   4939023.6403   1  29   0.0099   0.0099   0.0100   0.0000   0.0000   0.0000   0.00    0.0
2020/01/01 22:22:22.000  -1640138.6630  -3666873.3356   4939023.6403   1  29   0.0099   0.0099   0.0100   0.0000   0.0000   0.0000   0.00    0.0
2020/01/01 22:22:23.000  -1640138.6691  -3666873.3322   4939023.6395   1  29   0.0099   0.0099   0.0100   0.0000   0.0000   0.0000   0.00    0.0
2020/01/01 22:22:24.000  -1640138.6697  -3666873.3333   4939023.6410   1  29   0.0099   0.0099   0.0100   0.0000   0.0000   0.0000   0.00    0.0
2020/01/01 22:22:25.000  -1640138.6707  -3666873.3356   4939023.6442   1  29   0.0099   0.0099   0.0100   0.0000   0.0000   0.0000   0.00    0.0
2020/01/01 22:22:26.000  -1640138.6704  -3666873.3350   4939023.6434   1  29   0.0099   0.0099   0.0100   0.0000   0.0000   0.0000   0.00    0.0
2020/01/01 22:22:27.000  -1640138.6638  -3666873.3373   4939023.6426   1  29   0.0099   0.0099   0.0100   0.0000   0.0000   0.0000   0.00    0.0
2020/01/01 22:22:28.000  -1640138.6622  -3666873.3339   4939023.6379   1  29   0.0099   0.0099   0.0100   0.0000   0.0000   0.0000   0.00    0.0
2020/01/01 22:22:29.000  -1640138.6635  -3666873.3368   4939023.6418   1  29   0.0099   0.0099   0.0100   0.0000   0.0000   0.0000   0.00    0.0
2020/01/01 22:22:30.000  -1640138.6645  -3666873.3391   4939023.6449   1  29   0.0099   0.0099   0.0100   0.0000   0.0000   0.0000   0.00    0.0
